[{"name":"Kannapolis","lat":35.450488,"lon":-80.620724,"maxkv":null,"minkv":null,"class":"Undetermined","county":"Cabarrus","state":"NC","status":"In Service","stype":"Substation","source":"OSM/CSV","source_id":"or:electric_substation:1001"},{"name":"Unknown154141","lat":35.318998,"lon":-80.763377,"maxkv":null,"minkv":null,"class":"Undetermined","county":"Mecklenburg","state":"NC","status":"In Service","stype":"Substation","source":"OSM/CSV","source_id":"or:electric_substation:10018"},{"name":"Lake Waccamaw","lat":34.3391,"lon":-78.522815,"maxkv":115.0,"minkv":115.0,"class":"Transmission","county":"Columbus","state":"NC","status":"In Service","stype":"Substation","source":"OSM/CSV","source_id":"or:electric_substation:10025"},{"name":"Tap152600","lat":35.892075,"lon":-81.534607,"maxkv":null,"minkv":null,"class":"Undetermined","county":"Caldwell","state":"NC","status":"In Service","stype":"Tap","source":"OSM/CSV","source_id":"or:electric_substation:10038"},{"name":"Delco","lat":34.325977,"lon":-78.226533,"maxkv":null,"minkv":null,"class":"Undetermined","county":"Columbus","state":"NC","status":"In Service","stype":"Substation","source":"OSM/CSV","source_id":"or:electric_substation:10067"},{"name":"Tap152601","lat":35.891594,"lon":-81.534185,"maxkv":null,"minkv":null,"class":"Undetermined","county":"Caldwell","state":"NC","status":"In Service","stype":"Tap","source":"OSM/CSV","source_id":"or:electric_substation:10080"},{"name":"Riegel Wood Federal Paperboard","lat":34.350666,"lon":-78.210438,"maxkv":115.0,"minkv":115.0,"class":"Transmission","county":"Columbus","state":"NC","status":"In Service","stype":"Substation","source":"OSM/CSV","source_id":"or:electric_substation:10101"},{"name":"Ellerbe","lat":35.062882,"lon":-79.761366,"maxkv":null,"minkv":null,"class":"Undetermined","county":"Richmond","state":"NC","status":"In Service","stype":"Substation","source":"OSM/CSV","source_id":"or:electric_substation:10106"},{"name":"Tap152602","lat":35.891978,"lon":-81.535823,"maxkv":null,"minkv":null,"class":"Undetermined","county":"Caldwell","state":"NC","status":"In Service","stype":"Tap","source":"OSM/CSV","source_id":"or:electric_substation:10120"},{"name":"Nottely","lat":34.996607,"lon":-84.152839,"maxkv":161.0,"minkv":161.0,"class":"Transmission","county":"Cherokee","state":"NC","status":"In Service","stype":"Tap","source":"OSM/CSV","source_id":"or:electric_substation:10139"},{"name":"Hamlet Generating Facility","lat":34.84175,"lon":-79.736581,"maxkv":230.0,"minkv":230.0,"class":"Transmission-EHV","county":"Richmond","state":"NC","status":"In Service","stype":"Substation","source":"OSM/CSV","source_id":"or:electric_substation:10140"},{"name":"Industrial Customer","lat":34.259446,"lon":-78.074598,"maxkv":115.0,"minkv":115.0,"class":"Transmission","county":"Brunswick","state":"NC","status":"In Service","stype":"Substation","source":"OSM/CSV","source_id":"or:electric_substation:10142"},{"name":"Tap152603","lat":35.892457,"lon":-81.537262,"maxkv":null,"minkv":null,"class":"Undetermined","county":"Caldwell","state":"NC","status":"In Service","stype":"Tap","source":"OSM/CSV","source_id":"or:electric_substation:10162"},{"name":"Nottely","lat":35.031375,"lon":-84.139713,"maxkv":161.0,"minkv":161.0,"class":"Transmission","county":"Cherokee","state":"NC","status":"In Service","stype":"Tap","source":"OSM/CSV","source_id":"or:electric_substation:10180"},{"name":"Unknown148348","lat":34.944562,"lon":-79.150175,"maxkv":null,"minkv":null,"class":"Undetermined","county":"Hoke","state":"NC","status":"In Service","stype":"Substation","source":"OSM/CSV","source_id":"or:electric_substation:10195"},{"name":"Tap152604","lat":35.278611,"lon":-81.53093,"maxkv":100.0,"minkv":100.0,"class":"Sub-transmission","county":"Cleveland","state":"NC","status":"In Service","stype":"Tap","source":"OSM/CSV","source_id":"or:electric_substation:10196"},{"name":"Leland","lat":34.253572,"lon":-78.053079,"maxkv":115.0,"minkv":115.0,"class":"Transmission","county":"Brunswick","state":"NC","status":"In Service","stype":"Substation","source":"OSM/CSV","source_id":"or:electric_substation:10218"},{"name":"International Paper Co. - New Bern Mill","lat":35.214762,"lon":-77.115369,"maxkv":null,"minkv":null,"class":"Undetermined","county":"Craven","state":"NC","status":"Not Available","stype":"Substation","source":"OSM/CSV","source_id":"or:electric_substation:10227"},{"name":"Maxton Airport","lat":34.774729,"lon":-79.344092,"maxkv":115.0,"minkv":115.0,"class":"Transmission","county":"Scotland","state":"NC","status":"In Service","stype":"Substation","source":"OSM/CSV","source_id":"or:electric_substation:10229"},{"name":"Tap152605","lat":35.245337,"lon":-81.568249,"maxkv":100.0,"minkv":100.0,"class":"Sub-transmission","county":"Cleveland","state":"NC","status":"In Service","stype":"Tap","source":"OSM/CSV","source_id":"or:electric_substation:10237"},{"name":"United Solar Farms For Modest Road","lat":34.827527,"lon":-79.328394,"maxkv":115.0,"minkv":115.0,"class":"Transmission","county":"Robeson","state":"NC","status":"In Service","stype":"Tap","source":"OSM/CSV","source_id":"or:electric_substation:10265"},{"name":"Unknown172565","lat":35.380403,"lon":-77.40282,"maxkv":230.0,"minkv":230.0,"class":"Transmission-EHV","county":"Pitt","state":"NC","status":"Not Available","stype":"Substation","source":"OSM/CSV","source_id":"or:electric_substation:10276"},{"name":"Tap152606","lat":35.304081,"lon":-81.521578,"maxkv":100.0,"minkv":100.0,"class":"Sub-transmission","county":"Cleveland","state":"NC","status":"In Service","stype":"Tap","source":"OSM/CSV","source_id":"or:electric_substation:10278"},{"name":"Wilmington","lat":34.231845,"lon":-77.997447,"maxkv":115.0,"minkv":115.0,"class":"Transmission","county":"Brunswick","state":"NC","status":"In Service","stype":"Substation","source":"OSM/CSV","source_id":"or:electric_substation:10287"},{"name":"Laurinburg","lat":34.759852,"lon":-79.438853,"maxkv":230.0,"minkv":115.0,"class":"Transmission-EHV","county":"Scotland","state":"NC","status":"In Service","stype":"Substation","source":"OSM/CSV","source_id":"or:electric_substation:10298"},{"name":"Cleveland County Power Plant","lat":35.183428,"lon":-81.415067,"maxkv":null,"minkv":null,"class":"Undetermined","county":"Cleveland","state":"NC","status":"In Service","stype":"Tap","source":"OSM/CSV","source_id":"or:electric_substation:10305"},{"name":"Tap172566","lat":35.379693,"lon":-77.402585,"maxkv":230.0,"minkv":230.0,"class":"Transmission-EHV","county":"Pitt","state":"NC","status":"Not Available","stype":"Tap","source":"OSM/CSV","source_id":"or:electric_substation:10316"},{"name":"Pointhbr","lat":36.084216,"lon":-75.804526,"maxkv":230.0,"minkv":230.0,"class":"Transmission-EHV","county":"Currituck","state":"NC","status":"In Service","stype":"Substation","source":"OSM/CSV","source_id":"or:electric_substation:10327"},{"name":"Rockingham","lat":34.903755,"lon":-79.75831,"maxkv":230.0,"minkv":230.0,"class":"Transmission-EHV","county":"Richmond","state":"NC","status":"In Service","stype":"Substation","source":"OSM/CSV","source_id":"or:electric_substation:10332"},{"name":"Kannapolis","lat":35.449617,"lon":-80.620038,"maxkv":null,"minkv":null,"class":"Undetermined","county":"Cabarrus","state":"NC","status":"In Service","stype":"Substation","source":"OSM/CSV","source_id":"or:electric_substation:1035"},{"name":"Fremont (EMC)","lat":35.538034,"lon":-78.009446,"maxkv":115.0,"minkv":115.0,"class":"Transmission","county":"Wayne","state":"NC","status":"In Service","stype":"Substation","source":"OSM/CSV","source_id":"or:electric_substation:10355"},{"name":"Richmond","lat":34.843974,"lon":-79.746471,"maxkv":500.0,"minkv":230.0,"class":"Transmission-EHV","county":"Richmond","state":"NC","status":"In Service","stype":"Substation","source":"OSM/CSV","source_id":"or:electric_substation:10367"},{"name":"Lee Steam","lat":35.379833,"lon":-78.088816,"maxkv":115.0,"minkv":115.0,"class":"Transmission","county":"Wayne","state":"NC","status":"In Service","stype":"Substation","source":"OSM/CSV","source_id":"or:electric_substation:10398"},{"name":"Winfall","lat":36.223017,"lon":-76.460984,"maxkv":230.0,"minkv":230.0,"class":"Transmission-EHV","county":"Perquimans","state":"NC","status":"In Service","stype":"Substation","source":"OSM/CSV","source_id":"or:electric_substation:10403"},{"name":"Tap148355","lat":34.692834,"lon":-77.483324,"maxkv":null,"minkv":null,"class":"Undetermined","county":"Onslow","state":"NC","status":"In Service","stype":"Tap","source":"OSM/CSV","source_id":"or:electric_substation:10404"},{"name":"Fremont","lat":35.516648,"lon":-77.982715,"maxkv":null,"minkv":null,"class":"Undetermined","county":"Wayne","state":"NC","status":"In Service","stype":"Substation","source":"OSM/CSV","source_id":"or:electric_substation:10424"},{"name":"Tap148356","lat":34.525892,"lon":-77.510925,"maxkv":null,"minkv":null,"class":"Undetermined","county":"Onslow","state":"NC","status":"In Service","stype":"Tap","source":"OSM/CSV","source_id":"or:electric_substation:10436"},{"name":"Tap148357","lat":34.493528,"lon":-77.536977,"maxkv":null,"minkv":null,"class":"Undetermined","county":"Onslow","state":"NC","status":"In Service","stype":"Tap","source":"OSM/CSV","source_id":"or:electric_substation:10464"},{"name":"Sligo","lat":36.436196,"lon":-76.089781,"maxkv":230.0,"minkv":230.0,"class":"Transmission-EHV","county":"Currituck","state":"NC","status":"In Service","stype":"Substation","source":"OSM/CSV","source_id":"or:electric_substation:10466"},{"name":"North Blacksburg","lat":37.277082,"lon":-80.380971,"maxkv":138.0,"minkv":138.0,"class":"Transmission","county":"Montgomery","state":"VA","status":"In Service","stype":"Substation","source":"OSM/CSV","source_id":"or:electric_substation:10483"},{"name":"Rosewood (EMC)","lat":35.436296,"lon":-78.109557,"maxkv":115.0,"minkv":115.0,"class":"Transmission","county":"Wayne","state":"NC","status":"In Service","stype":"Substation","source":"OSM/CSV","source_id":"or:electric_substation:10501"},{"name":"Edgemont","lat":37.102225,"lon":-80.467102,"maxkv":138.0,"minkv":138.0,"class":"Transmission","county":"Montgomery","state":"VA","status":"In Service","stype":"Substation","source":"OSM/CSV","source_id":"or:electric_substation:10518"},{"name":"Tap148358","lat":34.492983,"lon":-77.537737,"maxkv":null,"minkv":null,"class":"Undetermined","county":"Onslow","state":"NC","status":"In Service","stype":"Tap","source":"OSM/CSV","source_id":"or:electric_substation:10520"},{"name":"Shawboro","lat":36.384856,"lon":-76.08006,"maxkv":230.0,"minkv":230.0,"class":"Transmission-EHV","county":"Currituck","state":"NC","status":"In Service","stype":"Substation","source":"OSM/CSV","source_id":"or:electric_substation:10536"},{"name":"Vicker","lat":37.165247,"lon":-80.444059,"maxkv":138.0,"minkv":138.0,"class":"Transmission","county":"Montgomery","state":"VA","status":"In Service","stype":"Substation","source":"OSM/CSV","source_id":"or:electric_substation:10553"},{"name":"Tap148359","lat":34.480382,"lon":-77.556699,"maxkv":null,"minkv":null,"class":"Undetermined","county":"Onslow","state":"NC","status":"In Service","stype":"Tap","source":"OSM/CSV","source_id":"or:electric_substation:10555"},{"name":"Hydroad","lat":38.058386,"lon":-78.491108,"maxkv":230.0,"minkv":230.0,"class":"Transmission-EHV","county":"Charlottesville","state":"VA","status":"Not Available","stype":"Substation","source":"OSM/CSV","source_id":"or:electric_substation:10559"},{"name":"Amity","lat":35.179243,"lon":-80.770981,"maxkv":100.0,"minkv":100.0,"class":"Sub-transmission","county":"Mecklenburg","state":"NC","status":"In Service","stype":"Substation","source":"OSM/CSV","source_id":"or:electric_substation:1056"},{"name":"New Hope","lat":35.418854,"lon":-77.92518,"maxkv":115.0,"minkv":115.0,"class":"Transmission","county":"Wayne","state":"NC","status":"In Service","stype":"Substation","source":"OSM/CSV","source_id":"or:electric_substation:10570"},{"name":"Tech Drive","lat":37.122528,"lon":-80.38396,"maxkv":138.0,"minkv":138.0,"class":"Transmission","county":"Montgomery","state":"VA","status":"In Service","stype":"Substation","source":"OSM/CSV","source_id":"or:electric_substation:10580"},{"name":"Tap148360","lat":34.450671,"lon":-77.60191,"maxkv":null,"minkv":null,"class":"Undetermined","county":"Pender","state":"NC","status":"In Service","stype":"Tap","source":"OSM/CSV","source_id":"or:electric_substation:10591"},{"name":"Unknown121565","lat":38.463781,"lon":-78.85693,"maxkv":null,"minkv":null,"class":"Undetermined","county":"Harrisonburg","state":"VA","status":"In Service","stype":"Substation","source":"OSM/CSV","source_id":"or:electric_substation:106"},{"name":"Belfast","lat":35.423406,"lon":-77.982994,"maxkv":115.0,"minkv":115.0,"class":"Transmission","county":"Wayne","state":"NC","status":"In Service","stype":"Substation","source":"OSM/CSV","source_id":"or:electric_substation:10609"},{"name":"Metcalf","lat":36.694738,"lon":-77.53021,"maxkv":115.0,"minkv":115.0,"class":"Transmission","county":"Emporia","state":"VA","status":"Not Available","stype":"Substation","source":"OSM/CSV","source_id":"or:electric_substation:10613"},{"name":"Thrasher","lat":36.759262,"lon":-76.240169,"maxkv":230.0,"minkv":230.0,"class":"Transmission-EHV","county":"Chesapeake","state":"VA","status":"In Service","stype":"Substation","source":"OSM/CSV","source_id":"or:electric_substation:10616"},{"name":"Tap148361","lat":34.370547,"lon":-77.782331,"maxkv":null,"minkv":null,"class":"Undetermined","county":"Pender","state":"NC","status":"In Service","stype":"Tap","source":"OSM/CSV","source_id":"or:electric_substation:10622"},{"name":"Falling Branch","lat":37.138303,"lon":-80.331193,"maxkv":138.0,"minkv":138.0,"class":"Transmission","county":"Montgomery","state":"VA","status":"In Service","stype":"Substation","source":"OSM/CSV","source_id":"or:electric_substation:10641"},{"name":"Goldsboro Weil","lat":35.350234,"lon":-78.000688,"maxkv":115.0,"minkv":115.0,"class":"Transmission","county":"Wayne","state":"NC","status":"In Service","stype":"Substation","source":"OSM/CSV","source_id":"or:electric_substation:10650"},{"name":"Tap148362","lat":34.403729,"lon":-77.712778,"maxkv":230.0,"minkv":230.0,"class":"Transmission-EHV","county":"Pender","state":"NC","status":"In Service","stype":"Tap","source":"OSM/CSV","source_id":"or:electric_substation:10658"},{"name":"Alum Ridge","lat":36.975394,"lon":-80.39842,"maxkv":138.0,"minkv":138.0,"class":"Transmission","county":"Floyd","state":"VA","status":"In Service","stype":"Substation","source":"OSM/CSV","source_id":"or:electric_substation:10667"},{"name":"Metcalf","lat":36.695199,"lon":-77.530263,"maxkv":115.0,"minkv":115.0,"class":"Transmission","county":"Emporia","state":"VA","status":"Not Available","stype":"Tap","source":"OSM/CSV","source_id":"or:electric_substation:10674"},{"name":"Noggles","lat":35.463622,"lon":-80.625078,"maxkv":null,"minkv":null,"class":"Undetermined","county":"Cabarrus","state":"NC","status":"In Service","stype":"Substation","source":"OSM/CSV","source_id":"or:electric_substation:1068"},{"name":"Tap148363","lat":34.328597,"lon":-77.878308,"maxkv":null,"minkv":null,"class":"Undetermined","county":"New Hanover","state":"NC","status":"In Service","stype":"Tap","source":"OSM/CSV","source_id":"or:electric_substation:10683"},{"name":"Grantham","lat":35.303815,"lon":-78.060277,"maxkv":230.0,"minkv":230.0,"class":"Transmission-EHV","county":"Wayne","state":"NC","status":"In Service","stype":"Substation","source":"OSM/CSV","source_id":"or:electric_substation:10692"},{"name":"Ruritan","lat":36.819388,"lon":-76.258257,"maxkv":230.0,"minkv":230.0,"class":"Transmission-EHV","county":"Chesapeake","state":"VA","status":"In Service","stype":"Substation","source":"OSM/CSV","source_id":"or:electric_substation:10699"},{"name":"Merrimac","lat":37.192545,"lon":-80.418816,"maxkv":138.0,"minkv":138.0,"class":"Transmission","county":"Montgomery","state":"VA","status":"In Service","stype":"Substation","source":"OSM/CSV","source_id":"or:electric_substation:10701"},{"name":"Royal Retail","lat":35.125373,"lon":-80.913417,"maxkv":100.0,"minkv":100.0,"class":"Sub-transmission","county":"Mecklenburg","state":"NC","status":"In Service","stype":"Substation","source":"OSM/CSV","source_id":"or:electric_substation:1071"},{"name":"Mt. Olive Industrial","lat":35.225327,"lon":-78.046947,"maxkv":115.0,"minkv":115.0,"class":"Transmission","county":"Wayne","state":"NC","status":"In Service","stype":"Substation","source":"OSM/CSV","source_id":"or:electric_substation:10731"},{"name":"Cherrydale Solar Power Facility","lat":37.365716,"lon":-75.916007,"maxkv":69.0,"minkv":69.0,"class":"Sub-transmission","county":"Northampton","state":"VA","status":"Not Available","stype":"Substation","source":"OSM/CSV","source_id":"or:electric_substation:10741"},{"name":"Wythe","lat":36.9352,"lon":-81.063417,"maxkv":138.0,"minkv":138.0,"class":"Transmission","county":"Wythe","state":"VA","status":"In Service","stype":"Tap","source":"OSM/CSV","source_id":"or:electric_substation:10767"},{"name":"Mt. Olive Industrial Tap","lat":35.256903,"lon":-78.076343,"maxkv":115.0,"minkv":115.0,"class":"Transmission","county":"Wayne","state":"NC","status":"In Service","stype":"Substation","source":"OSM/CSV","source_id":"or:electric_substation:10773"},{"name":"Landstown","lat":36.771302,"lon":-76.092163,"maxkv":230.0,"minkv":230.0,"class":"Transmission-EHV","county":"Virginia Beach","state":"VA","status":"In Service","stype":"Substation","source":"OSM/CSV","source_id":"or:electric_substation:10780"},{"name":"Emc Dudley","lat":35.257854,"lon":-78.026587,"maxkv":115.0,"minkv":115.0,"class":"Transmission","county":"Wayne","state":"NC","status":"In Service","stype":"Substation","source":"OSM/CSV","source_id":"or:electric_substation:10815"},{"name":"Arrowood","lat":35.124644,"lon":-80.911606,"maxkv":100.0,"minkv":100.0,"class":"Sub-transmission","county":"Mecklenburg","state":"NC","status":"In Service","stype":"Substation","source":"OSM/CSV","source_id":"or:electric_substation:1083"},{"name":"Unknown172459","lat":36.187989,"lon":-79.72984,"maxkv":null,"minkv":null,"class":"Undetermined","county":"Guilford","state":"NC","status":"Not Available","stype":"Substation","source":"OSM/CSV","source_id":"or:electric_substation:10917"},{"name":"Stumpy Lake","lat":36.779469,"lon":-76.15756,"maxkv":230.0,"minkv":230.0,"class":"Transmission-EHV","county":"Virginia Beach","state":"VA","status":"In Service","stype":"Substation","source":"OSM/CSV","source_id":"or:electric_substation:10948"},{"name":"Tap172460","lat":36.188402,"lon":-79.729989,"maxkv":null,"minkv":null,"class":"Undetermined","county":"Guilford","state":"NC","status":"Not Available","stype":"Tap","source":"OSM/CSV","source_id":"or:electric_substation:10950"},{"name":"Trent River Solar Llc","lat":34.958929,"lon":-77.271753,"maxkv":230.0,"minkv":230.0,"class":"Transmission-EHV","county":"Jones","state":"NC","status":"Not Available","stype":"Substation","source":"OSM/CSV","source_id":"or:electric_substation:10988"},{"name":"Ballpark","lat":35.487973,"lon":-80.628662,"maxkv":null,"minkv":null,"class":"Undetermined","county":"Cabarrus","state":"NC","status":"In Service","stype":"Substation","source":"OSM/CSV","source_id":"or:electric_substation:1100"},{"name":"Tap172462","lat":34.958395,"lon":-77.271309,"maxkv":230.0,"minkv":230.0,"class":"Transmission-EHV","county":"Jones","state":"NC","status":"Not Available","stype":"Tap","source":"OSM/CSV","source_id":"or:electric_substation:11015"},{"name":"Sewell's Point","lat":36.931026,"lon":-76.31858,"maxkv":null,"minkv":null,"class":"Undetermined","county":"Norfolk","state":"VA","status":"In Service","stype":"Substation","source":"OSM/CSV","source_id":"or:electric_substation:11022"},{"name":"Unknown172463","lat":35.37823,"lon":-80.888838,"maxkv":100.0,"minkv":100.0,"class":"Sub-transmission","county":"Mecklenburg","state":"NC","status":"Not Available","stype":"Substation","source":"OSM/CSV","source_id":"or:electric_substation:11040"},{"name":"Tap172464","lat":35.380013,"lon":-80.889243,"maxkv":100.0,"minkv":100.0,"class":"Sub-transmission","county":"Mecklenburg","state":"NC","status":"Not Available","stype":"Tap","source":"OSM/CSV","source_id":"or:electric_substation:11061"},{"name":"Tap162630","lat":35.055892,"lon":-78.861927,"maxkv":null,"minkv":null,"class":"Undetermined","county":"Cumberland","state":"NC","status":"In Service","stype":"Tap","source":"OSM/CSV","source_id":"or:electric_substation:11073"},{"name":"Lee Highway","lat":36.946655,"lon":-81.060245,"maxkv":138.0,"minkv":138.0,"class":"Transmission","county":"Wythe","state":"VA","status":"In Service","stype":"Substation","source":"OSM/CSV","source_id":"or:electric_substation:11133"},{"name":"Tap162631","lat":35.063321,"lon":-78.857479,"maxkv":66.0,"minkv":66.0,"class":"Distribution","county":"Cumberland","state":"NC","status":"In Service","stype":"Tap","source":"OSM/CSV","source_id":"or:electric_substation:11135"},{"name":"Potomac Yard","lat":38.84816,"lon":-77.045381,"maxkv":null,"minkv":null,"class":"Undetermined","county":"Arlington","state":"VA","status":"In Service","stype":"Substation","source":"OSM/CSV","source_id":"or:electric_substation:11149"},{"name":"Tap162632","lat":35.066128,"lon":-78.845423,"maxkv":66.0,"minkv":66.0,"class":"Distribution","county":"Cumberland","state":"NC","status":"In Service","stype":"Tap","source":"OSM/CSV","source_id":"or:electric_substation:11184"},{"name":"Elm","lat":38.705434,"lon":-77.792922,"maxkv":null,"minkv":null,"class":"Undetermined","county":"Fauquier","state":"VA","status":"In Service","stype":"Substation","source":"OSM/CSV","source_id":"or:electric_substation:11198"},{"name":"Dead Horse","lat":38.445931,"lon":-78.83582,"maxkv":null,"minkv":null,"class":"Undetermined","county":"Harrisonburg","state":"VA","status":"In Service","stype":"Substation","source":"OSM/CSV","source_id":"or:electric_substation:112"},{"name":"Unknown172764","lat":38.739201,"lon":-77.836978,"maxkv":null,"minkv":null,"class":"Undetermined","county":"Fauquier","state":"VA","status":"In Service","stype":"Substation","source":"OSM/CSV","source_id":"or:electric_substation:11246"},{"name":"Unknown114571","lat":35.505371,"lon":-80.61643,"maxkv":null,"minkv":null,"class":"Undetermined","county":"Rowan","state":"NC","status":"In Service","stype":"Substation","source":"OSM/CSV","source_id":"or:electric_substation:1129"},{"name":"North Winchester","lat":39.1979,"lon":-78.15544,"maxkv":null,"minkv":null,"class":"Undetermined","county":"Frederick","state":"VA","status":"In Service","stype":"Substation","source":"OSM/CSV","source_id":"or:electric_substation:11308"},{"name":"Fayetteville Water","lat":35.079671,"lon":-78.867168,"maxkv":null,"minkv":null,"class":"Undetermined","county":"Cumberland","state":"NC","status":"In Service","stype":"Substation","source":"OSM/CSV","source_id":"or:electric_substation:11356"},{"name":"King's Mill","lat":37.237811,"lon":-76.656419,"maxkv":null,"minkv":null,"class":"Undetermined","county":"James City","state":"VA","status":"In Service","stype":"Substation","source":"OSM/CSV","source_id":"or:electric_substation:11363"},{"name":"Allen","lat":35.191466,"lon":-81.0117,"maxkv":null,"minkv":null,"class":"Undetermined","county":"Gaston","state":"NC","status":"In Service","stype":"Substation","source":"OSM/CSV","source_id":"or:electric_substation:11368"},{"name":"Tap162636","lat":35.082857,"lon":-78.86536,"maxkv":66.0,"minkv":66.0,"class":"Distribution","county":"Cumberland","state":"NC","status":"In Service","stype":"Tap","source":"OSM/CSV","source_id":"or:electric_substation:11418"},{"name":"Dahlgren","lat":38.343826,"lon":-77.049312,"maxkv":230.0,"minkv":230.0,"class":"Transmission-EHV","county":"King George","state":"VA","status":"In Service","stype":"Substation","source":"OSM/CSV","source_id":"or:electric_substation:11425"},{"name":"Unknown172768","lat":37.094432,"lon":-76.480831,"maxkv":null,"minkv":null,"class":"Undetermined","county":"Newport News","state":"VA","status":"In Service","stype":"Substation","source":"OSM/CSV","source_id":"or:electric_substation:11481"},{"name":"Stanley","lat":38.581408,"lon":-78.528204,"maxkv":null,"minkv":null,"class":"Undetermined","county":"Page","state":"VA","status":"In Service","stype":"Substation","source":"OSM/CSV","source_id":"or:electric_substation:11544"},{"name":"Buena Vista","lat":37.730159,"lon":-79.369971,"maxkv":115.0,"minkv":115.0,"class":"Transmission","county":"Buena Vista","state":"VA","status":"In Service","stype":"Tap","source":"OSM/CSV","source_id":"or:electric_substation:11554"},{"name":"Mount Jackson","lat":38.770576,"lon":-78.618391,"maxkv":null,"minkv":null,"class":"Undetermined","county":"Shenandoah","state":"VA","status":"In Service","stype":"Substation","source":"OSM/CSV","source_id":"or:electric_substation:11599"},{"name":"Kannapolis","lat":35.450782,"lon":-80.61914,"maxkv":100.0,"minkv":100.0,"class":"Sub-transmission","county":"Cabarrus","state":"NC","status":"In Service","stype":"Substation","source":"OSM/CSV","source_id":"or:electric_substation:1162"},{"name":"Unknown172771","lat":38.938962,"lon":-78.151365,"maxkv":null,"minkv":null,"class":"Undetermined","county":"Warren","state":"VA","status":"In Service","stype":"Substation","source":"OSM/CSV","source_id":"or:electric_substation:11668"},{"name":"Unknown110044","lat":35.373445,"lon":-82.357252,"maxkv":115.0,"minkv":115.0,"class":"Transmission","county":"Henderson","state":"NC","status":"In Service","stype":"Substation","source":"OSM/CSV","source_id":"or:electric_substation:11672"},{"name":"King","lat":34.38014,"lon":-78.286304,"maxkv":115.0,"minkv":115.0,"class":"Transmission","county":"Columbus","state":"NC","status":"In Service","stype":"Substation","source":"OSM/CSV","source_id":"or:electric_substation:11718"},{"name":"East Sylva Retail","lat":35.37625,"lon":-83.214435,"maxkv":161.0,"minkv":161.0,"class":"Transmission","county":"Jackson","state":"NC","status":"In Service","stype":"Substation","source":"OSM/CSV","source_id":"or:electric_substation:11724"},{"name":"Warren County","lat":38.982025,"lon":-78.17358,"maxkv":null,"minkv":null,"class":"Undetermined","county":"Warren","state":"VA","status":"In Service","stype":"Substation","source":"OSM/CSV","source_id":"or:electric_substation:11729"},{"name":"Mechanicsville","lat":37.588218,"lon":-77.389174,"maxkv":230.0,"minkv":230.0,"class":"Transmission-EHV","county":"Henrico","state":"VA","status":"In Service","stype":"Substation","source":"OSM/CSV","source_id":"or:electric_substation:11742"},{"name":"Unknown172773","lat":38.987526,"lon":-78.166526,"maxkv":null,"minkv":null,"class":"Undetermined","county":"Warren","state":"VA","status":"In Service","stype":"Substation","source":"OSM/CSV","source_id":"or:electric_substation:11777"},{"name":"Peacock","lat":35.224066,"lon":-81.189809,"maxkv":230.0,"minkv":230.0,"class":"Transmission-EHV","county":"Gaston","state":"NC","status":"In Service","stype":"Substation","source":"OSM/CSV","source_id":"or:electric_substation:11780"},{"name":"Unknown115877","lat":37.548887,"lon":-77.474459,"maxkv":null,"minkv":null,"class":"Undetermined","county":"Richmond","state":"VA","status":"In Service","stype":"Substation","source":"OSM/CSV","source_id":"or:electric_substation:11790"},{"name":"Elizabethtown Power Llc","lat":34.647437,"lon":-78.641875,"maxkv":115.0,"minkv":115.0,"class":"Transmission","county":"Bladen","state":"NC","status":"In Service","stype":"Substation","source":"OSM/CSV","source_id":"or:electric_substation:11794"},{"name":"Unknown121567","lat":38.438028,"lon":-78.8632,"maxkv":null,"minkv":null,"class":"Undetermined","county":"Harrisonburg","state":"VA","status":"In Service","stype":"Substation","source":"OSM/CSV","source_id":"or:electric_substation:118"},{"name":"Success Road","lat":38.998677,"lon":-78.172418,"maxkv":null,"minkv":null,"class":"Undetermined","county":"Warren","state":"VA","status":"In Service","stype":"Substation","source":"OSM/CSV","source_id":"or:electric_substation:11811"},{"name":"Rankin Lake","lat":35.296226,"lon":-81.204644,"maxkv":100.0,"minkv":100.0,"class":"Sub-transmission","county":"Gaston","state":"NC","status":"In Service","stype":"Substation","source":"OSM/CSV","source_id":"or:electric_substation:11820"},{"name":"Tap150880","lat":36.364053,"lon":-80.164679,"maxkv":100.0,"minkv":100.0,"class":"Sub-transmission","county":"Stokes","state":"NC","status":"In Service","stype":"Tap","source":"OSM/CSV","source_id":"or:electric_substation:11833"},{"name":"South Winchester","lat":39.162857,"lon":-78.175508,"maxkv":null,"minkv":null,"class":"Undetermined","county":"Winchester","state":"VA","status":"In Service","stype":"Substation","source":"OSM/CSV","source_id":"or:electric_substation:11846"},{"name":"Mauryst","lat":37.511856,"lon":-77.422864,"maxkv":115.0,"minkv":115.0,"class":"Transmission","county":"Richmond","state":"VA","status":"In Service","stype":"Substation","source":"OSM/CSV","source_id":"or:electric_substation:11859"},{"name":"Tap150881","lat":35.089032,"lon":-80.163871,"maxkv":230.0,"minkv":230.0,"class":"Transmission-EHV","county":"Anson","state":"NC","status":"In Service","stype":"Tap","source":"OSM/CSV","source_id":"or:electric_substation:11867"},{"name":"Elizabethtown","lat":34.620416,"lon":-78.614677,"maxkv":115.0,"minkv":115.0,"class":"Transmission","county":"Bladen","state":"NC","status":"In Service","stype":"Substation","source":"OSM/CSV","source_id":"or:electric_substation:11870"},{"name":"South Sylva Retail","lat":35.359644,"lon":-83.205394,"maxkv":161.0,"minkv":161.0,"class":"Transmission","county":"Jackson","state":"NC","status":"In Service","stype":"Substation","source":"OSM/CSV","source_id":"or:electric_substation:11889"},{"name":"Kannapolis","lat":35.450396,"lon":-80.618327,"maxkv":230.0,"minkv":100.0,"class":"Transmission-EHV","county":"Cabarrus","state":"NC","status":"In Service","stype":"Substation","source":"OSM/CSV","source_id":"or:electric_substation:1189"},{"name":"Tuckertown (NC)","lat":35.481809,"lon":-80.176599,"maxkv":100.0,"minkv":100.0,"class":"Sub-transmission","county":"Stanly","state":"NC","status":"In Service","stype":"Tap","source":"OSM/CSV","source_id":"or:electric_substation:11901"},{"name":"Manchstr","lat":37.525389,"lon":-77.433788,"maxkv":115.0,"minkv":115.0,"class":"Transmission","county":"Richmond","state":"VA","status":"In Service","stype":"Substation","source":"OSM/CSV","source_id":"or:electric_substation:11927"},{"name":"Healing Springs","lat":35.624104,"lon":-80.182012,"maxkv":null,"minkv":null,"class":"Undetermined","county":"Davidson","state":"NC","status":"In Service","stype":"Tap","source":"OSM/CSV","source_id":"or:electric_substation:11935"},{"name":"Unknown116464","lat":37.79081,"lon":-77.539788,"maxkv":null,"minkv":null,"class":"Undetermined","county":"Hanover","state":"VA","status":"In Service","stype":"Substation","source":"OSM/CSV","source_id":"or:electric_substation:11970"},{"name":"Unknown110048","lat":35.376429,"lon":-83.216327,"maxkv":161.0,"minkv":161.0,"class":"Transmission","county":"Jackson","state":"NC","status":"In Service","stype":"Substation","source":"OSM/CSV","source_id":"or:electric_substation:11972"},{"name":"Willard Road Tap","lat":36.063986,"lon":-80.196364,"maxkv":100.0,"minkv":100.0,"class":"Sub-transmission","county":"Forsyth","state":"NC","status":"In Service","stype":"Tap","source":"OSM/CSV","source_id":"or:electric_substation:11977"},{"name":"Manchester","lat":37.526419,"lon":-77.440474,"maxkv":null,"minkv":null,"class":"Undetermined","county":"Richmond","state":"VA","status":"In Service","stype":"Substation","source":"OSM/CSV","source_id":"or:electric_substation:11989"},{"name":"Papermil","lat":37.552827,"lon":-76.813234,"maxkv":230.0,"minkv":230.0,"class":"Transmission-EHV","county":"King William","state":"VA","status":"In Service","stype":"Substation","source":"OSM/CSV","source_id":"or:electric_substation:12010"},{"name":"Tap150886","lat":37.237098,"lon":-80.177465,"maxkv":138.0,"minkv":138.0,"class":"Transmission","county":"Roanoke","state":"VA","status":"In Service","stype":"Tap","source":"OSM/CSV","source_id":"or:electric_substation:12017"},{"name":"Unknown121385","lat":37.330682,"lon":-78.993358,"maxkv":null,"minkv":null,"class":"Undetermined","county":"Campbell","state":"VA","status":"In Service","stype":"Substation","source":"OSM/CSV","source_id":"or:electric_substation:12029"},{"name":"Chesterfield","lat":37.370536,"lon":-77.392526,"maxkv":null,"minkv":null,"class":"Undetermined","county":"Chesterfield","state":"VA","status":"In Service","stype":"Substation","source":"OSM/CSV","source_id":"or:electric_substation:12050"},{"name":"Shacklfd","lat":37.54343,"lon":-76.701929,"maxkv":230.0,"minkv":230.0,"class":"Transmission-EHV","county":"King and Queen","state":"VA","status":"In Service","stype":"Substation","source":"OSM/CSV","source_id":"or:electric_substation:12051"},{"name":"Unknown110049","lat":35.424208,"lon":-83.339222,"maxkv":161.0,"minkv":161.0,"class":"Transmission","county":"Jackson","state":"NC","status":"In Service","stype":"Substation","source":"OSM/CSV","source_id":"or:electric_substation:12053"},{"name":"Expressw","lat":37.375328,"lon":-79.168071,"maxkv":138.0,"minkv":138.0,"class":"Transmission","county":"Lynchburg","state":"VA","status":"In Service","stype":"Substation","source":"OSM/CSV","source_id":"or:electric_substation:12070"},{"name":"Unknown116467","lat":37.754688,"lon":-77.164531,"maxkv":115.0,"minkv":115.0,"class":"Transmission","county":"King William","state":"VA","status":"In Service","stype":"Substation","source":"OSM/CSV","source_id":"or:electric_substation:12090"},{"name":"Rockbridge","lat":37.798442,"lon":-79.415567,"maxkv":115.0,"minkv":115.0,"class":"Transmission","county":"Rockbridge","state":"VA","status":"In Service","stype":"Substation","source":"OSM/CSV","source_id":"or:electric_substation:12095"},{"name":"Buena Vista","lat":37.732229,"lon":-79.356737,"maxkv":115.0,"minkv":115.0,"class":"Transmission","county":"Buena Vista","state":"VA","status":"In Service","stype":"Substation","source":"OSM/CSV","source_id":"or:electric_substation:12137"},{"name":"Snowden","lat":37.573581,"lon":-79.370894,"maxkv":null,"minkv":null,"class":"Undetermined","county":"Amherst","state":"VA","status":"In Service","stype":"Substation","source":"OSM/CSV","source_id":"or:electric_substation:12172"},{"name":"Bear Island","lat":37.798808,"lon":-77.26049,"maxkv":115.0,"minkv":115.0,"class":"Transmission","county":"King William","state":"VA","status":"In Service","stype":"Substation","source":"OSM/CSV","source_id":"or:electric_substation:12174"},{"name":"Unknown151766","lat":35.216851,"lon":-80.845107,"maxkv":null,"minkv":null,"class":"Undetermined","county":"Mecklenburg","state":"NC","status":"In Service","stype":"Substation","source":"OSM/CSV","source_id":"or:electric_substation:12190"},{"name":"Skimmer","lat":37.541118,"lon":-79.397899,"maxkv":null,"minkv":null,"class":"Undetermined","county":"Bedford","state":"VA","status":"In Service","stype":"Substation","source":"OSM/CSV","source_id":"or:electric_substation:12214"},{"name":"Brantley Tap","lat":35.465849,"lon":-80.574273,"maxkv":100.0,"minkv":100.0,"class":"Sub-transmission","county":"Cabarrus","state":"NC","status":"In Service","stype":"Substation","source":"OSM/CSV","source_id":"or:electric_substation:1224"},{"name":"Westvac4","lat":37.803383,"lon":-79.992887,"maxkv":138.0,"minkv":138.0,"class":"Transmission","county":"Covington","state":"VA","status":"In Service","stype":"Substation","source":"OSM/CSV","source_id":"or:electric_substation:12256"},{"name":"Slabtown","lat":38.224565,"lon":-77.473778,"maxkv":115.0,"minkv":115.0,"class":"Transmission","county":"Spotsylvania","state":"VA","status":"In Service","stype":"Substation","source":"OSM/CSV","source_id":"or:electric_substation:12258"},{"name":"Cogentrix","lat":37.294348,"lon":-77.258611,"maxkv":null,"minkv":null,"class":"Undetermined","county":"Hopewell","state":"VA","status":"Not Available","stype":"Substation","source":"OSM/CSV","source_id":"or:electric_substation:12280"},{"name":"Amherst","lat":37.561438,"lon":-79.012494,"maxkv":138.0,"minkv":138.0,"class":"Transmission","county":"Amherst","state":"VA","status":"In Service","stype":"Substation","source":"OSM/CSV","source_id":"or:electric_substation:12296"},{"name":"Sandlot","lat":38.747718,"lon":-77.510349,"maxkv":115.0,"minkv":115.0,"class":"Transmission","county":"Manassas","state":"VA","status":"Not Available","stype":"Substation","source":"OSM/CSV","source_id":"or:electric_substation:12321"},{"name":"Chilesburg","lat":38.002724,"lon":-77.54458,"maxkv":115.0,"minkv":115.0,"class":"Transmission","county":"Caroline","state":"VA","status":"In Service","stype":"Substation","source":"OSM/CSV","source_id":"or:electric_substation:12340"},{"name":"Innovation","lat":38.754656,"lon":-77.512828,"maxkv":230.0,"minkv":230.0,"class":"Transmission-EHV","county":"Prince William","state":"VA","status":"Not Available","stype":"Substation","source":"OSM/CSV","source_id":"or:electric_substation:12363"},{"name":"Shenandoah","lat":38.492893,"lon":-78.619491,"maxkv":null,"minkv":null,"class":"Undetermined","county":"Page","state":"VA","status":"In Service","stype":"Substation","source":"OSM/CSV","source_id":"or:electric_substation:124"},{"name":"Unknown116474","lat":38.14678,"lon":-77.599262,"maxkv":115.0,"minkv":115.0,"class":"Transmission","county":"Spotsylvania","state":"VA","status":"In Service","stype":"Substation","source":"OSM/CSV","source_id":"or:electric_substation:12423"},{"name":"Tap139186","lat":37.875159,"lon":-77.744941,"maxkv":null,"minkv":null,"class":"Undetermined","county":"Louisa","state":"VA","status":"In Service","stype":"Tap","source":"OSM/CSV","source_id":"or:electric_substation:12433"},{"name":"Port Royal","lat":38.165073,"lon":-77.203046,"maxkv":null,"minkv":null,"class":"Undetermined","county":"Caroline","state":"VA","status":"In Service","stype":"Substation","source":"OSM/CSV","source_id":"or:electric_substation:12508"},{"name":"Slabtndp","lat":38.22467,"lon":-77.473518,"maxkv":115.0,"minkv":115.0,"class":"Transmission","county":"Spotsylvania","state":"VA","status":"In Service","stype":"Tap","source":"OSM/CSV","source_id":"or:electric_substation:12511"},{"name":"Brantley","lat":35.492477,"lon":-80.580954,"maxkv":100.0,"minkv":100.0,"class":"Sub-transmission","county":"Cabarrus","state":"NC","status":"In Service","stype":"Substation","source":"OSM/CSV","source_id":"or:electric_substation:1259"},{"name":"St Johns Church","lat":38.070525,"lon":-77.335534,"maxkv":null,"minkv":null,"class":"Undetermined","county":"Caroline","state":"VA","status":"In Service","stype":"Substation","source":"OSM/CSV","source_id":"or:electric_substation:12591"},{"name":"Tap139188","lat":38.445833,"lon":-77.389079,"maxkv":230.0,"minkv":230.0,"class":"Transmission-EHV","county":"Stafford","state":"VA","status":"In Service","stype":"Tap","source":"OSM/CSV","source_id":"or:electric_substation:12594"},{"name":"Unknown116477","lat":38.172863,"lon":-77.395284,"maxkv":null,"minkv":null,"class":"Undetermined","county":"Caroline","state":"VA","status":"In Service","stype":"Substation","source":"OSM/CSV","source_id":"or:electric_substation:12674"},{"name":"Woodpecker","lat":38.091563,"lon":-77.437592,"maxkv":115.0,"minkv":115.0,"class":"Transmission","county":"Caroline","state":"VA","status":"In Service","stype":"Tap","source":"OSM/CSV","source_id":"or:electric_substation:12677"},{"name":"Burlington","lat":36.096279,"lon":-79.418035,"maxkv":null,"minkv":null,"class":"Undetermined","county":"Alamance","state":"NC","status":"In Service","stype":"Substation","source":"OSM/CSV","source_id":"or:electric_substation:12746"},{"name":"Unknown116479","lat":37.989925,"lon":-77.613448,"maxkv":115.0,"minkv":115.0,"class":"Transmission","county":"Caroline","state":"VA","status":"In Service","stype":"Substation","source":"OSM/CSV","source_id":"or:electric_substation:12757"},{"name":"Tap139190","lat":38.011494,"lon":-77.510245,"maxkv":115.0,"minkv":115.0,"class":"Transmission","county":"Caroline","state":"VA","status":"In Service","stype":"Tap","source":"OSM/CSV","source_id":"or:electric_substation:12760"},{"name":"Chesapeake","lat":36.766534,"lon":-76.305441,"maxkv":115.0,"minkv":115.0,"class":"Transmission","county":"Chesapeake","state":"VA","status":"Not Available","stype":"Dead End","source":"OSM/CSV","source_id":"or:electric_substation:12812"},{"name":"Ventura Solar Llc","lat":35.878306,"lon":-81.16826,"maxkv":100.0,"minkv":100.0,"class":"Sub-transmission","county":"Alexander","state":"NC","status":"In Service","stype":"Tap","source":"OSM/CSV","source_id":"or:electric_substation:12823"},{"name":"Spotsylvania","lat":38.237799,"lon":-77.78265,"maxkv":115.0,"minkv":115.0,"class":"Transmission","county":"Spotsylvania","state":"VA","status":"In Service","stype":"Tap","source":"OSM/CSV","source_id":"or:electric_substation:12837"},{"name":"Deadend172591","lat":37.112078,"lon":-76.422267,"maxkv":null,"minkv":null,"class":"Undetermined","county":"York","state":"VA","status":"Not Available","stype":"Dead End","source":"OSM/CSV","source_id":"or:electric_substation:12840"},{"name":"Ladysmith","lat":38.011179,"lon":-77.510221,"maxkv":115.0,"minkv":115.0,"class":"Transmission","county":"Caroline","state":"VA","status":"In Service","stype":"Substation","source":"OSM/CSV","source_id":"or:electric_substation:12841"},{"name":"Hopewell","lat":37.287164,"lon":-77.282785,"maxkv":115.0,"minkv":115.0,"class":"Transmission","county":"Hopewell","state":"VA","status":"Not Available","stype":"Dead End","source":"OSM/CSV","source_id":"or:electric_substation:12868"},{"name":"Unknown169530","lat":35.879814,"lon":-81.176455,"maxkv":100.0,"minkv":100.0,"class":"Sub-transmission","county":"Alexander","state":"NC","status":"In Service","stype":"Substation","source":"OSM/CSV","source_id":"or:electric_substation:12892"},{"name":"Celanese","lat":37.293503,"lon":-80.785475,"maxkv":138.0,"minkv":138.0,"class":"Transmission","county":"Giles","state":"VA","status":"Not Available","stype":"Dead End","source":"OSM/CSV","source_id":"or:electric_substation:12896"},{"name":"Ladysmith","lat":38.067098,"lon":-77.517263,"maxkv":115.0,"minkv":115.0,"class":"Transmission","county":"Caroline","state":"VA","status":"In Service","stype":"Tap","source":"OSM/CSV","source_id":"or:electric_substation:12906"},{"name":"Chesterfield","lat":37.389162,"lon":-77.377143,"maxkv":115.0,"minkv":115.0,"class":"Transmission","county":"Henrico","state":"VA","status":"Not Available","stype":"Dead End","source":"OSM/CSV","source_id":"or:electric_substation:12917"},{"name":"Locustdp","lat":38.288866,"lon":-77.86268,"maxkv":115.0,"minkv":115.0,"class":"Transmission","county":"Orange","state":"VA","status":"In Service","stype":"Substation","source":"OSM/CSV","source_id":"or:electric_substation:12924"},{"name":"Faith","lat":35.550247,"lon":-80.469343,"maxkv":100.0,"minkv":100.0,"class":"Sub-transmission","county":"Rowan","state":"NC","status":"In Service","stype":"Substation","source":"OSM/CSV","source_id":"or:electric_substation:1293"},{"name":"Dickens","lat":36.843265,"lon":-82.227262,"maxkv":138.0,"minkv":138.0,"class":"Transmission","county":"Russell","state":"VA","status":"In Service","stype":"Substation","source":"OSM/CSV","source_id":"or:electric_substation:12933"},{"name":"Tap169531","lat":35.880309,"lon":-81.175389,"maxkv":100.0,"minkv":100.0,"class":"Sub-transmission","county":"Alexander","state":"NC","status":"In Service","stype":"Tap","source":"OSM/CSV","source_id":"or:electric_substation:12969"},{"name":"Kings Dominion","lat":37.846501,"lon":-77.441217,"maxkv":115.0,"minkv":115.0,"class":"Transmission","county":"Hanover","state":"VA","status":"In Service","stype":"Tap","source":"OSM/CSV","source_id":"or:electric_substation:12983"},{"name":"Tap161649","lat":36.09424,"lon":-78.864025,"maxkv":null,"minkv":null,"class":"Undetermined","county":"Durham","state":"NC","status":"In Service","stype":"Tap","source":"OSM/CSV","source_id":"or:electric_substation:12988"},{"name":"Linville","lat":38.525244,"lon":-78.838368,"maxkv":null,"minkv":null,"class":"Undetermined","county":"Rockingham","state":"VA","status":"In Service","stype":"Substation","source":"OSM/CSV","source_id":"or:electric_substation:130"},{"name":"Oak Green","lat":38.333784,"lon":-77.947381,"maxkv":115.0,"minkv":115.0,"class":"Transmission","county":"Orange","state":"VA","status":"In Service","stype":"Substation","source":"OSM/CSV","source_id":"or:electric_substation:13008"},{"name":"Durham Landfill","lat":36.051421,"lon":-78.827901,"maxkv":null,"minkv":null,"class":"Undetermined","county":"Durham","state":"NC","status":"In Service","stype":"Substation","source":"OSM/CSV","source_id":"or:electric_substation:13023"},{"name":"Unknown169532","lat":35.92332,"lon":-81.169582,"maxkv":null,"minkv":null,"class":"Undetermined","county":"Alexander","state":"NC","status":"In Service","stype":"Substation","source":"OSM/CSV","source_id":"or:electric_substation:13039"},{"name":"Tap139194","lat":38.590294,"lon":-77.57716,"maxkv":115.0,"minkv":115.0,"class":"Transmission","county":"Fauquier","state":"VA","status":"In Service","stype":"Tap","source":"OSM/CSV","source_id":"or:electric_substation:13045"},{"name":"Tap161658","lat":35.89063,"lon":-77.550338,"maxkv":null,"minkv":null,"class":"Undetermined","county":"Edgecombe","state":"NC","status":"In Service","stype":"Tap","source":"OSM/CSV","source_id":"or:electric_substation:13087"},{"name":"Unionvil","lat":38.315735,"lon":-77.955478,"maxkv":115.0,"minkv":115.0,"class":"Transmission","county":"Orange","state":"VA","status":"In Service","stype":"Substation","source":"OSM/CSV","source_id":"or:electric_substation:13091"},{"name":"Unknown169533","lat":35.938583,"lon":-81.194003,"maxkv":null,"minkv":null,"class":"Undetermined","county":"Alexander","state":"NC","status":"In Service","stype":"Substation","source":"OSM/CSV","source_id":"or:electric_substation:13107"},{"name":"Novec Moore Delivery Point","lat":38.767415,"lon":-77.376178,"maxkv":230.0,"minkv":230.0,"class":"Transmission-EHV","county":"Fairfax","state":"VA","status":"In Service","stype":"Tap","source":"OSM/CSV","source_id":"or:electric_substation:13114"},{"name":"Somerset","lat":38.146948,"lon":-78.193265,"maxkv":115.0,"minkv":115.0,"class":"Transmission","county":"Orange","state":"VA","status":"In Service","stype":"Substation","source":"OSM/CSV","source_id":"or:electric_substation:13173"},{"name":"Unknown169534","lat":35.972963,"lon":-81.241998,"maxkv":null,"minkv":null,"class":"Undetermined","county":"Alexander","state":"NC","status":"In Service","stype":"Substation","source":"OSM/CSV","source_id":"or:electric_substation:13176"},{"name":"Smoketown","lat":38.641571,"lon":-77.3018,"maxkv":115.0,"minkv":115.0,"class":"Transmission","county":"Prince William","state":"VA","status":"In Service","stype":"Tap","source":"OSM/CSV","source_id":"or:electric_substation:13183"},{"name":"Unknown169535","lat":34.948185,"lon":-80.018927,"maxkv":null,"minkv":null,"class":"Undetermined","county":"Anson","state":"NC","status":"In Service","stype":"Substation","source":"OSM/CSV","source_id":"or:electric_substation:13243"},{"name":"Floyd","lat":36.925929,"lon":-80.308592,"maxkv":138.0,"minkv":138.0,"class":"Transmission","county":"Floyd","state":"VA","status":"In Service","stype":"Substation","source":"OSM/CSV","source_id":"or:electric_substation:1325"},{"name":"Smoktndp","lat":38.641419,"lon":-77.301783,"maxkv":115.0,"minkv":115.0,"class":"Transmission","county":"Prince William","state":"VA","status":"In Service","stype":"Tap","source":"OSM/CSV","source_id":"or:electric_substation:13250"},{"name":"Orange","lat":38.24057,"lon":-78.109241,"maxkv":115.0,"minkv":115.0,"class":"Transmission","county":"Orange","state":"VA","status":"In Service","stype":"Substation","source":"OSM/CSV","source_id":"or:electric_substation:13254"},{"name":"Faith","lat":35.54928,"lon":-80.468986,"maxkv":100.0,"minkv":100.0,"class":"Sub-transmission","county":"Rowan","state":"NC","status":"In Service","stype":"Substation","source":"OSM/CSV","source_id":"or:electric_substation:1327"},{"name":"Tap169536","lat":34.983038,"lon":-80.041192,"maxkv":230.0,"minkv":230.0,"class":"Transmission-EHV","county":"Anson","state":"NC","status":"In Service","stype":"Tap","source":"OSM/CSV","source_id":"or:electric_substation:13313"},{"name":"Country Club Delivery Point","lat":38.609046,"lon":-77.319517,"maxkv":115.0,"minkv":115.0,"class":"Transmission","county":"Prince William","state":"VA","status":"In Service","stype":"Tap","source":"OSM/CSV","source_id":"or:electric_substation:13320"},{"name":"Unknown116486","lat":38.196698,"lon":-77.968443,"maxkv":null,"minkv":null,"class":"Undetermined","county":"Orange","state":"VA","status":"In Service","stype":"Substation","source":"OSM/CSV","source_id":"or:electric_substation:13337"},{"name":"Tap169537","lat":36.329466,"lon":-81.580097,"maxkv":null,"minkv":null,"class":"Undetermined","county":"Ashe","state":"NC","status":"In Service","stype":"Tap","source":"OSM/CSV","source_id":"or:electric_substation:13382"},{"name":"Ctrycldp","lat":38.609102,"lon":-77.319333,"maxkv":115.0,"minkv":115.0,"class":"Transmission","county":"Prince William","state":"VA","status":"In Service","stype":"Tap","source":"OSM/CSV","source_id":"or:electric_substation:13388"},{"name":"Ellisville","lat":38.098573,"lon":-77.991674,"maxkv":115.0,"minkv":115.0,"class":"Transmission","county":"Louisa","state":"VA","status":"In Service","stype":"Substation","source":"OSM/CSV","source_id":"or:electric_substation:13419"},{"name":"Unknown169538","lat":36.433124,"lon":-81.6205,"maxkv":null,"minkv":null,"class":"Undetermined","county":"Ashe","state":"NC","status":"In Service","stype":"Substation","source":"OSM/CSV","source_id":"or:electric_substation:13443"},{"name":"Tap139200","lat":38.626611,"lon":-77.308929,"maxkv":115.0,"minkv":115.0,"class":"Transmission","county":"Prince William","state":"VA","status":"In Service","stype":"Tap","source":"OSM/CSV","source_id":"or:electric_substation:13449"},{"name":"Westmoreland","lat":38.081179,"lon":-76.843546,"maxkv":230.0,"minkv":230.0,"class":"Transmission-EHV","county":"Richmond","state":"VA","status":"In Service","stype":"Substation","source":"OSM/CSV","source_id":"or:electric_substation:13499"},{"name":"Dayton","lat":38.471403,"lon":-79.03236,"maxkv":null,"minkv":null,"class":"Undetermined","county":"Rockingham","state":"VA","status":"In Service","stype":"Substation","source":"OSM/CSV","source_id":"or:electric_substation:135"},{"name":"Hogardml","lat":36.025603,"lon":-76.982249,"maxkv":230.0,"minkv":230.0,"class":"Transmission-EHV","county":"Bertie","state":"NC","status":"In Service","stype":"Substation","source":"OSM/CSV","source_id":"or:electric_substation:13502"},{"name":"Tap139201","lat":38.62646,"lon":-77.308893,"maxkv":115.0,"minkv":115.0,"class":"Transmission","county":"Prince William","state":"VA","status":"In Service","stype":"Tap","source":"OSM/CSV","source_id":"or:electric_substation:13509"},{"name":"Windsor","lat":36.031176,"lon":-77.011604,"maxkv":230.0,"minkv":230.0,"class":"Transmission-EHV","county":"Bertie","state":"NC","status":"In Service","stype":"Tap","source":"OSM/CSV","source_id":"or:electric_substation:13563"},{"name":"Hancock","lat":37.864062,"lon":-76.563134,"maxkv":115.0,"minkv":115.0,"class":"Transmission","county":"Richmond","state":"VA","status":"In Service","stype":"Substation","source":"OSM/CSV","source_id":"or:electric_substation:13567"},{"name":"Pinnacles","lat":36.66691,"lon":-80.447994,"maxkv":69.0,"minkv":69.0,"class":"Sub-transmission","county":"Patrick","state":"VA","status":"In Service","stype":"Substation","source":"OSM/CSV","source_id":"or:electric_substation:13570"},{"name":"Garber Delivery Point","lat":38.626713,"lon":-77.310128,"maxkv":115.0,"minkv":115.0,"class":"Transmission","county":"Prince William","state":"VA","status":"In Service","stype":"Tap","source":"OSM/CSV","source_id":"or:electric_substation:13577"},{"name":"Concord Main","lat":35.409021,"lon":-80.596214,"maxkv":null,"minkv":null,"class":"Undetermined","county":"Cabarrus","state":"NC","status":"In Service","stype":"Substation","source":"OSM/CSV","source_id":"or:electric_substation:1362"},{"name":"Unknown169541","lat":34.549819,"lon":-78.827034,"maxkv":115.0,"minkv":115.0,"class":"Transmission","county":"Bladen","state":"NC","status":"In Service","stype":"Substation","source":"OSM/CSV","source_id":"or:electric_substation:13631"},{"name":"Lancastr","lat":37.708025,"lon":-76.393601,"maxkv":115.0,"minkv":115.0,"class":"Transmission","county":"Lancaster","state":"VA","status":"In Service","stype":"Substation","source":"OSM/CSV","source_id":"or:electric_substation:13643"},{"name":"Tap139203","lat":38.532517,"lon":-77.323876,"maxkv":115.0,"minkv":115.0,"class":"Transmission","county":"Prince William","state":"VA","status":"In Service","stype":"Tap","source":"OSM/CSV","source_id":"or:electric_substation:13646"},{"name":"Parkwood","lat":35.932607,"lon":-78.878684,"maxkv":100.0,"minkv":100.0,"class":"Sub-transmission","county":"Durham","state":"NC","status":"In Service","stype":"Tap","source":"OSM/CSV","source_id":"or:electric_substation:13660"},{"name":"Tap169542","lat":34.564929,"lon":-78.809425,"maxkv":115.0,"minkv":115.0,"class":"Transmission","county":"Bladen","state":"NC","status":"In Service","stype":"Tap","source":"OSM/CSV","source_id":"or:electric_substation:13701"},{"name":"Robley","lat":37.851239,"lon":-76.578313,"maxkv":null,"minkv":null,"class":"Undetermined","county":"Richmond","state":"VA","status":"In Service","stype":"Substation","source":"OSM/CSV","source_id":"or:electric_substation:13713"},{"name":"Dumfries","lat":38.586528,"lon":-77.306607,"maxkv":230.0,"minkv":230.0,"class":"Transmission-EHV","county":"Prince William","state":"VA","status":"In Service","stype":"Tap","source":"OSM/CSV","source_id":"or:electric_substation:13715"},{"name":"Tap169543","lat":33.954091,"lon":-78.450263,"maxkv":null,"minkv":null,"class":"Undetermined","county":"Brunswick","state":"NC","status":"In Service","stype":"Tap","source":"OSM/CSV","source_id":"or:electric_substation:13779"},{"name":"Unknown116493","lat":37.737382,"lon":-76.5442,"maxkv":null,"minkv":null,"class":"Undetermined","county":"Lancaster","state":"VA","status":"In Service","stype":"Substation","source":"OSM/CSV","source_id":"or:electric_substation:13796"},{"name":"Eagle Island","lat":34.229262,"lon":-77.954272,"maxkv":115.0,"minkv":115.0,"class":"Transmission","county":"New Hanover","state":"NC","status":"In Service","stype":"Substation","source":"OSM/CSV","source_id":"or:electric_substation:13853"},{"name":"Ottoman","lat":37.700165,"lon":-76.521181,"maxkv":null,"minkv":null,"class":"Undetermined","county":"Lancaster","state":"VA","status":"In Service","stype":"Substation","source":"OSM/CSV","source_id":"or:electric_substation:13879"},{"name":"Cliffside","lat":35.219631,"lon":-81.767204,"maxkv":230.0,"minkv":230.0,"class":"Transmission-EHV","county":"Rutherford","state":"NC","status":"In Service","stype":"Substation","source":"OSM/CSV","source_id":"or:electric_substation:13900"},{"name":"Tapping Innovative Solar 31","lat":34.539345,"lon":-78.755788,"maxkv":230.0,"minkv":230.0,"class":"Transmission-EHV","county":"Bladen","state":"NC","status":"In Service","stype":"Tap","source":"OSM/CSV","source_id":"or:electric_substation:13903"},{"name":"Tap169545","lat":34.229362,"lon":-77.954861,"maxkv":115.0,"minkv":115.0,"class":"Transmission","county":"New Hanover","state":"NC","status":"In Service","stype":"Tap","source":"OSM/CSV","source_id":"or:electric_substation:13928"},{"name":"Saltville","lat":36.895488,"lon":-81.753345,"maxkv":138.0,"minkv":138.0,"class":"Transmission","county":"Smyth","state":"VA","status":"In Service","stype":"Substation","source":"OSM/CSV","source_id":"or:electric_substation:13941"},{"name":"Concord Main","lat":35.408539,"lon":-80.595661,"maxkv":null,"minkv":null,"class":"Undetermined","county":"Cabarrus","state":"NC","status":"In Service","stype":"Substation","source":"OSM/CSV","source_id":"or:electric_substation:1395"},{"name":"Dunbrooke","lat":37.892438,"lon":-76.964067,"maxkv":null,"minkv":null,"class":"Undetermined","county":"Essex","state":"VA","status":"In Service","stype":"Substation","source":"OSM/CSV","source_id":"or:electric_substation:13954"},{"name":"Tap158332","lat":34.528458,"lon":-78.299509,"maxkv":230.0,"minkv":230.0,"class":"Transmission-EHV","county":"Bladen","state":"NC","status":"In Service","stype":"Tap","source":"OSM/CSV","source_id":"or:electric_substation:13979"},{"name":"Tap169546","lat":34.275904,"lon":-77.958924,"maxkv":115.0,"minkv":115.0,"class":"Transmission","county":"New Hanover","state":"NC","status":"In Service","stype":"Tap","source":"OSM/CSV","source_id":"or:electric_substation:13999"},{"name":"Daytondp","lat":38.411137,"lon":-78.932575,"maxkv":345.0,"minkv":345.0,"class":"Transmission-EHV","county":"Rockingham","state":"VA","status":"In Service","stype":"Substation","source":"OSM/CSV","source_id":"or:electric_substation:140"},{"name":"St Johns Church","lat":37.96347,"lon":-77.21763,"maxkv":null,"minkv":null,"class":"Undetermined","county":"Caroline","state":"VA","status":"In Service","stype":"Substation","source":"OSM/CSV","source_id":"or:electric_substation:14030"},{"name":"Tap162486","lat":35.041067,"lon":-78.914135,"maxkv":66.0,"minkv":66.0,"class":"Distribution","county":"Cumberland","state":"NC","status":"In Service","stype":"Tap","source":"OSM/CSV","source_id":"or:electric_substation:14036"},{"name":"River Road","lat":36.269013,"lon":-76.198912,"maxkv":15.0,"minkv":15.0,"class":"Distribution","county":"Pasquotank","state":"NC","status":"In Service","stype":"Substation","source":"OSM/CSV","source_id":"or:electric_substation:14056"},{"name":"Garden Creek","lat":37.181407,"lon":-82.035776,"maxkv":138.0,"minkv":138.0,"class":"Transmission","county":"Buchanan","state":"VA","status":"In Service","stype":"Tap","source":"OSM/CSV","source_id":"or:electric_substation:14061"},{"name":"Stuartap","lat":36.637177,"lon":-80.262428,"maxkv":138.0,"minkv":138.0,"class":"Transmission","county":"Patrick","state":"VA","status":"In Service","stype":"Substation","source":"OSM/CSV","source_id":"or:electric_substation:14063"},{"name":"Tap162487","lat":35.040871,"lon":-78.914198,"maxkv":66.0,"minkv":66.0,"class":"Distribution","county":"Cumberland","state":"NC","status":"In Service","stype":"Tap","source":"OSM/CSV","source_id":"or:electric_substation:14064"},{"name":"Tap169547","lat":34.232289,"lon":-77.997363,"maxkv":115.0,"minkv":115.0,"class":"Transmission","county":"Brunswick","state":"NC","status":"In Service","stype":"Tap","source":"OSM/CSV","source_id":"or:electric_substation:14074"},{"name":"Tap173570","lat":35.622327,"lon":-80.979835,"maxkv":null,"minkv":null,"class":"Undetermined","county":"Catawba","state":"NC","status":"In Service","stype":"Tap","source":"OSM/CSV","source_id":"or:electric_substation:14091"},{"name":"Tap162488","lat":35.031013,"lon":-78.930221,"maxkv":66.0,"minkv":66.0,"class":"Distribution","county":"Cumberland","state":"NC","status":"In Service","stype":"Tap","source":"OSM/CSV","source_id":"or:electric_substation:14098"},{"name":"Stafford Bristers","lat":38.481425,"lon":-77.559397,"maxkv":115.0,"minkv":115.0,"class":"Transmission","county":"Stafford","state":"VA","status":"In Service","stype":"Substation","source":"OSM/CSV","source_id":"or:electric_substation:14106"},{"name":"Tap162489","lat":35.045534,"lon":-78.937892,"maxkv":66.0,"minkv":66.0,"class":"Distribution","county":"Cumberland","state":"NC","status":"In Service","stype":"Tap","source":"OSM/CSV","source_id":"or:electric_substation:14119"},{"name":"Walnutav","lat":37.258168,"lon":-79.93857,"maxkv":69.0,"minkv":69.0,"class":"Sub-transmission","county":"Roanoke","state":"VA","status":"In Service","stype":"Substation","source":"OSM/CSV","source_id":"or:electric_substation:14131"},{"name":"Barnard Creek","lat":34.153802,"lon":-77.939823,"maxkv":230.0,"minkv":230.0,"class":"Transmission-EHV","county":"New Hanover","state":"NC","status":"In Service","stype":"Substation","source":"OSM/CSV","source_id":"or:electric_substation:14140"},{"name":"Robbins Road","lat":36.07186,"lon":-80.156814,"maxkv":100.0,"minkv":100.0,"class":"Sub-transmission","county":"Forsyth","state":"NC","status":"In Service","stype":"Substation","source":"OSM/CSV","source_id":"or:electric_substation:14147"},{"name":"Beaverdam","lat":35.633954,"lon":-82.551121,"maxkv":null,"minkv":null,"class":"Undetermined","county":"Buncombe","state":"NC","status":"In Service","stype":"Substation","source":"OSM/CSV","source_id":"or:electric_substation:14151"},{"name":"Tap173573","lat":34.15361,"lon":-77.939764,"maxkv":230.0,"minkv":230.0,"class":"Transmission-EHV","county":"New Hanover","state":"NC","status":"In Service","stype":"Tap","source":"OSM/CSV","source_id":"or:electric_substation:14166"},{"name":"Unknown160564","lat":35.539712,"lon":-76.996262,"maxkv":null,"minkv":null,"class":"Undetermined","county":"Beaufort","state":"NC","status":"In Service","stype":"Substation","source":"OSM/CSV","source_id":"or:electric_substation:14170"},{"name":"Tap162490","lat":35.060144,"lon":-78.948681,"maxkv":66.0,"minkv":66.0,"class":"Distribution","county":"Cumberland","state":"NC","status":"In Service","stype":"Tap","source":"OSM/CSV","source_id":"or:electric_substation:14173"},{"name":"Sedge Garden","lat":36.105305,"lon":-80.103636,"maxkv":100.0,"minkv":100.0,"class":"Sub-transmission","county":"Forsyth","state":"NC","status":"In Service","stype":"Substation","source":"OSM/CSV","source_id":"or:electric_substation:14199"},{"name":"Crossro2","lat":37.314268,"lon":-79.960542,"maxkv":69.0,"minkv":69.0,"class":"Sub-transmission","county":"Roanoke","state":"VA","status":"In Service","stype":"Substation","source":"OSM/CSV","source_id":"or:electric_substation:14210"},{"name":"Deltec Homes Solar","lat":35.634164,"lon":-82.591418,"maxkv":null,"minkv":null,"class":"Undetermined","county":"Buncombe","state":"NC","status":"In Service","stype":"Tap","source":"OSM/CSV","source_id":"or:electric_substation:14221"},{"name":"Tap162491","lat":35.039656,"lon":-78.947279,"maxkv":66.0,"minkv":66.0,"class":"Distribution","county":"Cumberland","state":"NC","status":"In Service","stype":"Tap","source":"OSM/CSV","source_id":"or:electric_substation:14224"},{"name":"Kernersville","lat":36.114946,"lon":-80.060995,"maxkv":100.0,"minkv":100.0,"class":"Sub-transmission","county":"Forsyth","state":"NC","status":"In Service","stype":"Substation","source":"OSM/CSV","source_id":"or:electric_substation:14252"},{"name":"Saphire","lat":35.131535,"lon":-83.065276,"maxkv":161.0,"minkv":161.0,"class":"Transmission","county":"Jackson","state":"NC","status":"In Service","stype":"Substation","source":"OSM/CSV","source_id":"or:electric_substation:14276"},{"name":"Unknown162492","lat":35.039937,"lon":-78.949939,"maxkv":66.0,"minkv":66.0,"class":"Distribution","county":"Cumberland","state":"NC","status":"In Service","stype":"Substation","source":"OSM/CSV","source_id":"or:electric_substation:14279"},{"name":"Unknown114580","lat":35.326178,"lon":-80.536984,"maxkv":null,"minkv":null,"class":"Undetermined","county":"Cabarrus","state":"NC","status":"In Service","stype":"Substation","source":"OSM/CSV","source_id":"or:electric_substation:1429"},{"name":"Unknown169550","lat":35.540632,"lon":-82.51574,"maxkv":115.0,"minkv":115.0,"class":"Transmission","county":"Buncombe","state":"NC","status":"In Service","stype":"Substation","source":"OSM/CSV","source_id":"or:electric_substation:14291"},{"name":"Cove Road","lat":37.303885,"lon":-79.985333,"maxkv":null,"minkv":null,"class":"Undetermined","county":"Roanoke","state":"VA","status":"In Service","stype":"Substation","source":"OSM/CSV","source_id":"or:electric_substation:14293"},{"name":"Franklinton","lat":36.096809,"lon":-78.475334,"maxkv":115.0,"minkv":115.0,"class":"Transmission","county":"Franklin","state":"NC","status":"In Service","stype":"Substation","source":"OSM/CSV","source_id":"or:electric_substation:14306"},{"name":"Stratford Road","lat":36.063212,"lon":-80.308516,"maxkv":100.0,"minkv":100.0,"class":"Sub-transmission","county":"Forsyth","state":"NC","status":"In Service","stype":"Substation","source":"OSM/CSV","source_id":"or:electric_substation:14308"},{"name":"Thorpe","lat":35.233691,"lon":-83.124558,"maxkv":161.0,"minkv":161.0,"class":"Transmission","county":"Jackson","state":"NC","status":"In Service","stype":"Substation","source":"OSM/CSV","source_id":"or:electric_substation:14318"},{"name":"Bordeaux","lat":35.03041,"lon":-78.945762,"maxkv":66.0,"minkv":66.0,"class":"Distribution","county":"Cumberland","state":"NC","status":"In Service","stype":"Tap","source":"OSM/CSV","source_id":"or:electric_substation:14342"},{"name":"Tennessee Creek","lat":35.219285,"lon":-83.016631,"maxkv":161.0,"minkv":161.0,"class":"Transmission","county":"Jackson","state":"NC","status":"In Service","stype":"Substation","source":"OSM/CSV","source_id":"or:electric_substation:14358"},{"name":"Oteen","lat":35.557996,"lon":-82.49742,"maxkv":115.0,"minkv":115.0,"class":"Transmission","county":"Buncombe","state":"NC","status":"In Service","stype":"Tap","source":"OSM/CSV","source_id":"or:electric_substation:14359"},{"name":"Gastonia Prime Power Park","lat":35.301931,"lon":-81.209955,"maxkv":100.0,"minkv":100.0,"class":"Sub-transmission","county":"Gaston","state":"NC","status":"In Service","stype":"Substation","source":"OSM/CSV","source_id":"or:electric_substation:14362"},{"name":"Melrose","lat":37.286662,"lon":-79.975617,"maxkv":69.0,"minkv":69.0,"class":"Sub-transmission","county":"Roanoke","state":"VA","status":"In Service","stype":"Substation","source":"OSM/CSV","source_id":"or:electric_substation:14375"},{"name":"Hawthorne","lat":36.077179,"lon":-80.301185,"maxkv":100.0,"minkv":100.0,"class":"Sub-transmission","county":"Forsyth","state":"NC","status":"In Service","stype":"Substation","source":"OSM/CSV","source_id":"or:electric_substation:14376"},{"name":"Pocomoke","lat":36.061505,"lon":-78.487259,"maxkv":115.0,"minkv":115.0,"class":"Transmission","county":"Franklin","state":"NC","status":"In Service","stype":"Substation","source":"OSM/CSV","source_id":"or:electric_substation:14381"},{"name":"Gastonia 16","lat":35.297487,"lon":-81.214144,"maxkv":100.0,"minkv":100.0,"class":"Sub-transmission","county":"Gaston","state":"NC","status":"In Service","stype":"Tap","source":"OSM/CSV","source_id":"or:electric_substation:14390"},{"name":"Unknown109820","lat":35.672044,"lon":-82.991942,"maxkv":115.0,"minkv":115.0,"class":"Transmission","county":"Haywood","state":"NC","status":"In Service","stype":"Substation","source":"OSM/CSV","source_id":"or:electric_substation:14393"},{"name":"Tap162494","lat":35.025875,"lon":-78.942425,"maxkv":66.0,"minkv":66.0,"class":"Distribution","county":"Cumberland","state":"NC","status":"In Service","stype":"Tap","source":"OSM/CSV","source_id":"or:electric_substation:14403"},{"name":"Tap169552","lat":35.456891,"lon":-82.49172,"maxkv":115.0,"minkv":115.0,"class":"Transmission","county":"Buncombe","state":"NC","status":"In Service","stype":"Tap","source":"OSM/CSV","source_id":"or:electric_substation:14421"},{"name":"Mt Tabor","lat":36.117901,"lon":-80.330574,"maxkv":100.0,"minkv":100.0,"class":"Sub-transmission","county":"Forsyth","state":"NC","status":"In Service","stype":"Substation","source":"OSM/CSV","source_id":"or:electric_substation:14431"},{"name":"Riverbend","lat":35.36207,"lon":-80.972182,"maxkv":100.0,"minkv":100.0,"class":"Sub-transmission","county":"Gaston","state":"NC","status":"In Service","stype":"Substation","source":"OSM/CSV","source_id":"or:electric_substation:14445"},{"name":"Lone Star","lat":37.460389,"lon":-79.99109,"maxkv":null,"minkv":null,"class":"Undetermined","county":"Botetourt","state":"VA","status":"In Service","stype":"Substation","source":"OSM/CSV","source_id":"or:electric_substation:14451"},{"name":"Youngsville","lat":36.049923,"lon":-78.489801,"maxkv":115.0,"minkv":115.0,"class":"Transmission","county":"Franklin","state":"NC","status":"In Service","stype":"Substation","source":"OSM/CSV","source_id":"or:electric_substation:14457"},{"name":"Tap162495","lat":35.027787,"lon":-78.938466,"maxkv":66.0,"minkv":66.0,"class":"Distribution","county":"Cumberland","state":"NC","status":"In Service","stype":"Tap","source":"OSM/CSV","source_id":"or:electric_substation:14459"},{"name":"Mar Don","lat":36.073739,"lon":-80.334186,"maxkv":100.0,"minkv":100.0,"class":"Sub-transmission","county":"Forsyth","state":"NC","status":"In Service","stype":"Substation","source":"OSM/CSV","source_id":"or:electric_substation:14486"},{"name":"Tapping Deadend169554","lat":35.456944,"lon":-82.493089,"maxkv":115.0,"minkv":115.0,"class":"Transmission","county":"Buncombe","state":"NC","status":"In Service","stype":"Tap","source":"OSM/CSV","source_id":"or:electric_substation:14496"},{"name":"Bordeaux","lat":35.028209,"lon":-78.938897,"maxkv":66.0,"minkv":66.0,"class":"Distribution","county":"Cumberland","state":"NC","status":"In Service","stype":"Substation","source":"OSM/CSV","source_id":"or:electric_substation:14521"},{"name":"Wheatland","lat":37.503713,"lon":-79.812186,"maxkv":null,"minkv":null,"class":"Undetermined","county":"Botetourt","state":"VA","status":"In Service","stype":"Substation","source":"OSM/CSV","source_id":"or:electric_substation:14527"},{"name":"Youngsville","lat":36.023607,"lon":-78.499304,"maxkv":115.0,"minkv":115.0,"class":"Transmission","county":"Franklin","state":"NC","status":"In Service","stype":"Substation","source":"OSM/CSV","source_id":"or:electric_substation:14533"},{"name":"Mt Tabor","lat":36.117819,"lon":-80.32948,"maxkv":100.0,"minkv":100.0,"class":"Sub-transmission","county":"Forsyth","state":"NC","status":"In Service","stype":"Substation","source":"OSM/CSV","source_id":"or:electric_substation:14549"},{"name":"Deadend169554","lat":35.480125,"lon":-82.491208,"maxkv":115.0,"minkv":115.0,"class":"Transmission","county":"Buncombe","state":"NC","status":"In Service","stype":"Dead End","source":"OSM/CSV","source_id":"or:electric_substation:14567"},{"name":"Tap162497","lat":35.023117,"lon":-78.921878,"maxkv":66.0,"minkv":66.0,"class":"Distribution","county":"Cumberland","state":"NC","status":"In Service","stype":"Tap","source":"OSM/CSV","source_id":"or:electric_substation:14577"},{"name":"Riser177287","lat":36.08865,"lon":-80.236,"maxkv":100.0,"minkv":100.0,"class":"Sub-transmission","county":"Forsyth","state":"NC","status":"In Service","stype":"Substation","source":"OSM/CSV","source_id":"or:electric_substation:14598"},{"name":"Pleasant Valley (VA)","lat":38.401011,"lon":-78.89792,"maxkv":null,"minkv":null,"class":"Undetermined","county":"Harrisonburg","state":"VA","status":"In Service","stype":"Substation","source":"OSM/CSV","source_id":"or:electric_substation:146"},{"name":"Ingles St","lat":37.117044,"lon":-80.593139,"maxkv":138.0,"minkv":138.0,"class":"Transmission","county":"Radford","state":"VA","status":"In Service","stype":"Substation","source":"OSM/CSV","source_id":"or:electric_substation:1461"},{"name":"Eastmill","lat":37.800656,"lon":-79.997895,"maxkv":138.0,"minkv":138.0,"class":"Transmission","county":"Alleghany","state":"VA","status":"In Service","stype":"Substation","source":"OSM/CSV","source_id":"or:electric_substation:14610"},{"name":"Louisburg","lat":36.101596,"lon":-78.321503,"maxkv":115.0,"minkv":115.0,"class":"Transmission","county":"Franklin","state":"NC","status":"In Service","stype":"Substation","source":"OSM/CSV","source_id":"or:electric_substation:14616"},{"name":"Tap162498","lat":35.023154,"lon":-78.921777,"maxkv":66.0,"minkv":66.0,"class":"Distribution","county":"Cumberland","state":"NC","status":"In Service","stype":"Tap","source":"OSM/CSV","source_id":"or:electric_substation:14625"},{"name":"Lebanon","lat":36.922645,"lon":-82.070514,"maxkv":138.0,"minkv":138.0,"class":"Transmission","county":"Russell","state":"VA","status":"In Service","stype":"Substation","source":"OSM/CSV","source_id":"or:electric_substation:14629"},{"name":"Unknown114581","lat":35.326853,"lon":-80.537017,"maxkv":null,"minkv":null,"class":"Undetermined","county":"Cabarrus","state":"NC","status":"In Service","stype":"Substation","source":"OSM/CSV","source_id":"or:electric_substation:1463"},{"name":"Marble","lat":35.18918,"lon":-83.917486,"maxkv":null,"minkv":null,"class":"Undetermined","county":"Cherokee","state":"NC","status":"In Service","stype":"Substation","source":"OSM/CSV","source_id":"or:electric_substation:1464"},{"name":"Enka","lat":35.543166,"lon":-82.648534,"maxkv":115.0,"minkv":115.0,"class":"Transmission","county":"Buncombe","state":"NC","status":"In Service","stype":"Substation","source":"OSM/CSV","source_id":"or:electric_substation:14643"},{"name":"Brookwood","lat":36.125461,"lon":-80.227,"maxkv":100.0,"minkv":100.0,"class":"Sub-transmission","county":"Forsyth","state":"NC","status":"In Service","stype":"Substation","source":"OSM/CSV","source_id":"or:electric_substation:14653"},{"name":"Abingdon","lat":36.720046,"lon":-82.007967,"maxkv":138.0,"minkv":138.0,"class":"Transmission","county":"Washington","state":"VA","status":"In Service","stype":"Substation","source":"OSM/CSV","source_id":"or:electric_substation:14664"},{"name":"Williams Street","lat":35.046968,"lon":-78.891068,"maxkv":66.0,"minkv":66.0,"class":"Distribution","county":"Cumberland","state":"NC","status":"In Service","stype":"Tap","source":"OSM/CSV","source_id":"or:electric_substation:14681"},{"name":"Covington","lat":37.76932,"lon":-79.986,"maxkv":138.0,"minkv":138.0,"class":"Transmission","county":"Covington","state":"VA","status":"In Service","stype":"Substation","source":"OSM/CSV","source_id":"or:electric_substation:14685"},{"name":"Sinai","lat":36.743051,"lon":-78.92985,"maxkv":115.0,"minkv":115.0,"class":"Transmission","county":"Halifax","state":"VA","status":"In Service","stype":"Substation","source":"OSM/CSV","source_id":"or:electric_substation:14711"},{"name":"Shattalon","lat":36.168837,"lon":-80.301112,"maxkv":100.0,"minkv":100.0,"class":"Sub-transmission","county":"Forsyth","state":"NC","status":"In Service","stype":"Substation","source":"OSM/CSV","source_id":"or:electric_substation:14715"},{"name":"Tap169556","lat":35.546751,"lon":-82.642942,"maxkv":115.0,"minkv":115.0,"class":"Transmission","county":"Buncombe","state":"NC","status":"In Service","stype":"Tap","source":"OSM/CSV","source_id":"or:electric_substation:14718"},{"name":"Tap162500","lat":35.040142,"lon":-78.902778,"maxkv":66.0,"minkv":66.0,"class":"Distribution","county":"Cumberland","state":"NC","status":"In Service","stype":"Tap","source":"OSM/CSV","source_id":"or:electric_substation:14750"},{"name":"Rocky Forge Wind","lat":37.656924,"lon":-79.808641,"maxkv":138.0,"minkv":138.0,"class":"Transmission","county":"Botetourt","state":"VA","status":"In Service","stype":"Substation","source":"OSM/CSV","source_id":"or:electric_substation:14770"},{"name":"Poland Rd","lat":38.917516,"lon":-77.491736,"maxkv":230.0,"minkv":230.0,"class":"Transmission-EHV","county":"Loudoun","state":"VA","status":"In Service","stype":"Substation","source":"OSM/CSV","source_id":"or:electric_substation:14777"},{"name":"North Winston Retail","lat":36.15588,"lon":-80.251811,"maxkv":100.0,"minkv":100.0,"class":"Sub-transmission","county":"Forsyth","state":"NC","status":"In Service","stype":"Substation","source":"OSM/CSV","source_id":"or:electric_substation:14778"},{"name":"Unknown109616","lat":35.18822,"lon":-83.918538,"maxkv":161.0,"minkv":161.0,"class":"Transmission","county":"Cherokee","state":"NC","status":"In Service","stype":"Substation","source":"OSM/CSV","source_id":"or:electric_substation:1478"},{"name":"Halifax","lat":36.780693,"lon":-78.923821,"maxkv":230.0,"minkv":115.0,"class":"Transmission-EHV","county":"Halifax","state":"VA","status":"In Service","stype":"Substation","source":"OSM/CSV","source_id":"or:electric_substation:14782"},{"name":"Unknown169557","lat":35.709033,"lon":-81.793248,"maxkv":100.0,"minkv":100.0,"class":"Sub-transmission","county":"Burke","state":"NC","status":"In Service","stype":"Substation","source":"OSM/CSV","source_id":"or:electric_substation:14789"},{"name":"Tap162501","lat":35.014293,"lon":-78.934396,"maxkv":66.0,"minkv":66.0,"class":"Distribution","county":"Cumberland","state":"NC","status":"In Service","stype":"Tap","source":"OSM/CSV","source_id":"or:electric_substation:14812"},{"name":"Tap148480","lat":35.511406,"lon":-80.834561,"maxkv":100.0,"minkv":100.0,"class":"Sub-transmission","county":"Iredell","state":"NC","status":"In Service","stype":"Tap","source":"OSM/CSV","source_id":"or:electric_substation:1484"},{"name":"Rj Reynolds","lat":36.138454,"lon":-80.257619,"maxkv":100.0,"minkv":100.0,"class":"Sub-transmission","county":"Forsyth","state":"NC","status":"In Service","stype":"Substation","source":"OSM/CSV","source_id":"or:electric_substation:14840"},{"name":"Riser161591","lat":37.231883,"lon":-80.434357,"maxkv":null,"minkv":null,"class":"Undetermined","county":"Montgomery","state":"VA","status":"In Service","stype":"Riser","source":"OSM/CSV","source_id":"or:electric_substation:14844"},{"name":"Whitehouse","lat":37.128546,"lon":-79.591712,"maxkv":138.0,"minkv":138.0,"class":"Transmission","county":"Bedford","state":"VA","status":"In Service","stype":"Substation","source":"OSM/CSV","source_id":"or:electric_substation:14848"},{"name":"South Boston","lat":36.700295,"lon":-78.913011,"maxkv":115.0,"minkv":115.0,"class":"Transmission","county":"Halifax","state":"VA","status":"In Service","stype":"Substation","source":"OSM/CSV","source_id":"or:electric_substation:14852"},{"name":"Tap169558","lat":35.709538,"lon":-81.802289,"maxkv":100.0,"minkv":100.0,"class":"Sub-transmission","county":"Burke","state":"NC","status":"In Service","stype":"Tap","source":"OSM/CSV","source_id":"or:electric_substation:14856"},{"name":"Cumberland Road","lat":35.014977,"lon":-78.934108,"maxkv":66.0,"minkv":66.0,"class":"Distribution","county":"Cumberland","state":"NC","status":"In Service","stype":"Substation","source":"OSM/CSV","source_id":"or:electric_substation:14875"},{"name":"North Claytor","lat":37.123262,"lon":-80.530267,"maxkv":138.0,"minkv":138.0,"class":"Transmission","county":"Radford","state":"VA","status":"In Service","stype":"Substation","source":"OSM/CSV","source_id":"or:electric_substation:1489"},{"name":"Guthrie","lat":36.11344,"lon":-80.168777,"maxkv":100.0,"minkv":100.0,"class":"Sub-transmission","county":"Forsyth","state":"NC","status":"In Service","stype":"Substation","source":"OSM/CSV","source_id":"or:electric_substation:14895"},{"name":"Prices Fork","lat":37.222294,"lon":-80.444191,"maxkv":null,"minkv":null,"class":"Undetermined","county":"Montgomery","state":"VA","status":"In Service","stype":"Tap","source":"OSM/CSV","source_id":"or:electric_substation:14911"},{"name":"Lone Gum","lat":37.179502,"lon":-79.431085,"maxkv":138.0,"minkv":138.0,"class":"Transmission","county":"Bedford","state":"VA","status":"In Service","stype":"Substation","source":"OSM/CSV","source_id":"or:electric_substation:14915"},{"name":"Reedy Creek","lat":36.697713,"lon":-78.876414,"maxkv":115.0,"minkv":115.0,"class":"Transmission","county":"Halifax","state":"VA","status":"In Service","stype":"Substation","source":"OSM/CSV","source_id":"or:electric_substation:14919"},{"name":"Unknown169559","lat":35.690251,"lon":-81.81467,"maxkv":null,"minkv":null,"class":"Undetermined","county":"Burke","state":"NC","status":"In Service","stype":"Substation","source":"OSM/CSV","source_id":"or:electric_substation:14925"},{"name":"Tap162503","lat":35.014426,"lon":-78.933808,"maxkv":66.0,"minkv":66.0,"class":"Distribution","county":"Cumberland","state":"NC","status":"In Service","stype":"Tap","source":"OSM/CSV","source_id":"or:electric_substation:14935"},{"name":"Walkertown","lat":36.171916,"lon":-80.162795,"maxkv":100.0,"minkv":100.0,"class":"Sub-transmission","county":"Forsyth","state":"NC","status":"In Service","stype":"Substation","source":"OSM/CSV","source_id":"or:electric_substation:14969"},{"name":"Piper Glen","lat":35.045296,"lon":-80.824077,"maxkv":100.0,"minkv":100.0,"class":"Sub-transmission","county":"Mecklenburg","state":"NC","status":"In Service","stype":"Substation","source":"OSM/CSV","source_id":"or:electric_substation:1498"},{"name":"Welco","lat":36.671966,"lon":-78.920093,"maxkv":115.0,"minkv":115.0,"class":"Transmission","county":"Halifax","state":"VA","status":"In Service","stype":"Substation","source":"OSM/CSV","source_id":"or:electric_substation:14987"},{"name":"Dominion","lat":37.22422,"lon":-79.289712,"maxkv":115.0,"minkv":115.0,"class":"Transmission","county":"Campbell","state":"VA","status":"In Service","stype":"Substation","source":"OSM/CSV","source_id":"or:electric_substation:14989"},{"name":"Unknown169560","lat":35.655909,"lon":-81.757807,"maxkv":null,"minkv":null,"class":"Undetermined","county":"Burke","state":"NC","status":"In Service","stype":"Substation","source":"OSM/CSV","source_id":"or:electric_substation:14994"},{"name":"Unknown162505","lat":34.99932,"lon":-78.90577,"maxkv":null,"minkv":null,"class":"Undetermined","county":"Cumberland","state":"NC","status":"In Service","stype":"Substation","source":"OSM/CSV","source_id":"or:electric_substation:15003"},{"name":"Walkertown Retail","lat":36.171624,"lon":-80.163929,"maxkv":null,"minkv":null,"class":"Undetermined","county":"Forsyth","state":"NC","status":"In Service","stype":"Substation","source":"OSM/CSV","source_id":"or:electric_substation:15037"},{"name":"Riverville","lat":37.51113,"lon":-78.911987,"maxkv":138.0,"minkv":138.0,"class":"Transmission","county":"Amherst","state":"VA","status":"In Service","stype":"Substation","source":"OSM/CSV","source_id":"or:electric_substation:15048"},{"name":"Unknown169561","lat":35.763388,"lon":-81.544303,"maxkv":null,"minkv":null,"class":"Undetermined","county":"Burke","state":"NC","status":"In Service","stype":"Substation","source":"OSM/CSV","source_id":"or:electric_substation:15054"},{"name":"Altavista Power Station","lat":37.117766,"lon":-79.27597,"maxkv":115.0,"minkv":115.0,"class":"Transmission","county":"Campbell","state":"VA","status":"In Service","stype":"Substation","source":"OSM/CSV","source_id":"or:electric_substation:15063"},{"name":"Unknown162506","lat":35.010518,"lon":-78.922332,"maxkv":66.0,"minkv":66.0,"class":"Distribution","county":"Cumberland","state":"NC","status":"In Service","stype":"Substation","source":"OSM/CSV","source_id":"or:electric_substation:15064"},{"name":"Rural Hall Tie","lat":36.244678,"lon":-80.306215,"maxkv":230.0,"minkv":100.0,"class":"Transmission-EHV","county":"Forsyth","state":"NC","status":"In Service","stype":"Substation","source":"OSM/CSV","source_id":"or:electric_substation:15098"},{"name":"Hunters Cove Solar Llc","lat":35.387384,"lon":-81.910468,"maxkv":100.0,"minkv":100.0,"class":"Sub-transmission","county":"Rutherford","state":"NC","status":"In Service","stype":"Tap","source":"OSM/CSV","source_id":"or:electric_substation:15116"},{"name":"Harrisonburg","lat":38.411324,"lon":-78.882281,"maxkv":230.0,"minkv":230.0,"class":"Transmission-EHV","county":"Rockingham","state":"VA","status":"In Service","stype":"Substation","source":"OSM/CSV","source_id":"or:electric_substation:15123"},{"name":"Tap162507","lat":35.00719,"lon":-78.930773,"maxkv":66.0,"minkv":66.0,"class":"Distribution","county":"Cumberland","state":"NC","status":"In Service","stype":"Tap","source":"OSM/CSV","source_id":"or:electric_substation:15126"},{"name":"Unknown169562","lat":35.705767,"lon":-81.700638,"maxkv":null,"minkv":null,"class":"Undetermined","county":"Burke","state":"NC","status":"In Service","stype":"Substation","source":"OSM/CSV","source_id":"or:electric_substation:15130"},{"name":"Skimmer","lat":37.524027,"lon":-79.353147,"maxkv":69.0,"minkv":69.0,"class":"Sub-transmission","county":"Bedford","state":"VA","status":"In Service","stype":"Substation","source":"OSM/CSV","source_id":"or:electric_substation:15138"},{"name":"Tobaccoville Utility Plant","lat":36.246975,"lon":-80.362958,"maxkv":100.0,"minkv":100.0,"class":"Sub-transmission","county":"Forsyth","state":"NC","status":"In Service","stype":"Substation","source":"OSM/CSV","source_id":"or:electric_substation:15160"},{"name":"Dayton","lat":38.40984,"lon":-78.928152,"maxkv":230.0,"minkv":230.0,"class":"Transmission-EHV","county":"Rockingham","state":"VA","status":"In Service","stype":"Substation","source":"OSM/CSV","source_id":"or:electric_substation:15177"},{"name":"Unknown169563","lat":35.677822,"lon":-81.682332,"maxkv":null,"minkv":null,"class":"Undetermined","county":"Burke","state":"NC","status":"In Service","stype":"Substation","source":"OSM/CSV","source_id":"or:electric_substation:15184"},{"name":"Mcguire","lat":35.42184,"lon":-80.94635,"maxkv":500.0,"minkv":230.0,"class":"Transmission-EHV","county":"Mecklenburg","state":"NC","status":"In Service","stype":"Substation","source":"OSM/CSV","source_id":"or:electric_substation:15190"},{"name":"Unknown162508","lat":34.999669,"lon":-78.936134,"maxkv":66.0,"minkv":66.0,"class":"Distribution","county":"Cumberland","state":"NC","status":"In Service","stype":"Substation","source":"OSM/CSV","source_id":"or:electric_substation:15195"},{"name":"Unknown121573","lat":38.210346,"lon":-78.381086,"maxkv":null,"minkv":null,"class":"Undetermined","county":"Greene","state":"VA","status":"In Service","stype":"Substation","source":"OSM/CSV","source_id":"or:electric_substation:152"},{"name":"Tap154866","lat":35.411932,"lon":-81.918208,"maxkv":100.0,"minkv":100.0,"class":"Sub-transmission","county":"Rutherford","state":"NC","status":"In Service","stype":"Tap","source":"OSM/CSV","source_id":"or:electric_substation:15213"},{"name":"Monroeap","lat":37.490091,"lon":-79.123681,"maxkv":null,"minkv":null,"class":"Undetermined","county":"Amherst","state":"VA","status":"In Service","stype":"Substation","source":"OSM/CSV","source_id":"or:electric_substation:15215"},{"name":"Unknown169564","lat":35.714587,"lon":-81.856364,"maxkv":null,"minkv":null,"class":"Undetermined","county":"Burke","state":"NC","status":"In Service","stype":"Substation","source":"OSM/CSV","source_id":"or:electric_substation:15227"},{"name":"Unknown115093","lat":36.248756,"lon":-80.302897,"maxkv":100.0,"minkv":100.0,"class":"Sub-transmission","county":"Forsyth","state":"NC","status":"In Service","stype":"Substation","source":"OSM/CSV","source_id":"or:electric_substation:15230"},{"name":"Tap154867","lat":35.346827,"lon":-81.896877,"maxkv":115.0,"minkv":115.0,"class":"Transmission","county":"Rutherford","state":"NC","status":"In Service","stype":"Tap","source":"OSM/CSV","source_id":"or:electric_substation:15247"},{"name":"Weyers Cave","lat":38.282894,"lon":-78.905908,"maxkv":115.0,"minkv":115.0,"class":"Transmission","county":"Augusta","state":"VA","status":"In Service","stype":"Substation","source":"OSM/CSV","source_id":"or:electric_substation:15254"},{"name":"Unknown169565","lat":35.717715,"lon":-81.44236,"maxkv":null,"minkv":null,"class":"Undetermined","county":"Burke","state":"NC","status":"In Service","stype":"Substation","source":"OSM/CSV","source_id":"or:electric_substation:15261"},{"name":"Tap162509","lat":35.026474,"lon":-78.968699,"maxkv":66.0,"minkv":66.0,"class":"Distribution","county":"Cumberland","state":"NC","status":"In Service","stype":"Tap","source":"OSM/CSV","source_id":"or:electric_substation:15264"},{"name":"Tap154868","lat":35.34851,"lon":-81.901932,"maxkv":null,"minkv":null,"class":"Undetermined","county":"Rutherford","state":"NC","status":"In Service","stype":"Tap","source":"OSM/CSV","source_id":"or:electric_substation:15288"},{"name":"Bwaep","lat":37.411036,"lon":-79.062691,"maxkv":138.0,"minkv":138.0,"class":"Transmission","county":"Campbell","state":"VA","status":"In Service","stype":"Substation","source":"OSM/CSV","source_id":"or:electric_substation:15297"},{"name":"Unknown169566","lat":35.66249,"lon":-81.452545,"maxkv":null,"minkv":null,"class":"Undetermined","county":"Burke","state":"NC","status":"In Service","stype":"Substation","source":"OSM/CSV","source_id":"or:electric_substation:15302"},{"name":"Unknown162512","lat":35.0263,"lon":-78.968734,"maxkv":66.0,"minkv":66.0,"class":"Distribution","county":"Cumberland","state":"NC","status":"In Service","stype":"Substation","source":"OSM/CSV","source_id":"or:electric_substation:15325"},{"name":"Peach Grove D.P.","lat":38.381444,"lon":-78.88548,"maxkv":115.0,"minkv":115.0,"class":"Transmission","county":"Rockingham","state":"VA","status":"In Service","stype":"Substation","source":"OSM/CSV","source_id":"or:electric_substation:15329"},{"name":"Mcalpine Creek","lat":35.087501,"lon":-80.831238,"maxkv":100.0,"minkv":100.0,"class":"Sub-transmission","county":"Mecklenburg","state":"NC","status":"In Service","stype":"Substation","source":"OSM/CSV","source_id":"or:electric_substation:1533"},{"name":"Elm Street","lat":37.406251,"lon":-79.133868,"maxkv":null,"minkv":null,"class":"Undetermined","county":"Lynchburg","state":"VA","status":"In Service","stype":"Substation","source":"OSM/CSV","source_id":"or:electric_substation:15378"},{"name":"Tap162513","lat":35.042092,"lon":-78.990564,"maxkv":66.0,"minkv":66.0,"class":"Distribution","county":"Cumberland","state":"NC","status":"In Service","stype":"Tap","source":"OSM/CSV","source_id":"or:electric_substation:15386"},{"name":"North River D.P.","lat":38.347597,"lon":-78.896563,"maxkv":115.0,"minkv":115.0,"class":"Transmission","county":"Rockingham","state":"VA","status":"In Service","stype":"Substation","source":"OSM/CSV","source_id":"or:electric_substation:15403"},{"name":"Unknown162514","lat":35.076532,"lon":-78.994101,"maxkv":66.0,"minkv":66.0,"class":"Distribution","county":"Cumberland","state":"NC","status":"In Service","stype":"Substation","source":"OSM/CSV","source_id":"or:electric_substation:15446"},{"name":"Elm Street","lat":37.400461,"lon":-79.126387,"maxkv":null,"minkv":null,"class":"Undetermined","county":"Lynchburg","state":"VA","status":"In Service","stype":"Substation","source":"OSM/CSV","source_id":"or:electric_substation:15458"},{"name":"Tap162515","lat":35.075916,"lon":-78.994207,"maxkv":66.0,"minkv":66.0,"class":"Distribution","county":"Cumberland","state":"NC","status":"In Service","stype":"Tap","source":"OSM/CSV","source_id":"or:electric_substation:15514"},{"name":"Reusens","lat":37.462495,"lon":-79.187126,"maxkv":null,"minkv":null,"class":"Undetermined","county":"Lynchburg","state":"VA","status":"In Service","stype":"Substation","source":"OSM/CSV","source_id":"or:electric_substation:15533"},{"name":"Tap162516","lat":35.076749,"lon":-78.994042,"maxkv":null,"minkv":null,"class":"Undetermined","county":"Cumberland","state":"NC","status":"In Service","stype":"Tap","source":"OSM/CSV","source_id":"or:electric_substation:15575"},{"name":"Laurinburg Solar","lat":34.744322,"lon":-79.398234,"maxkv":115.0,"minkv":115.0,"class":"Transmission","county":"Scotland","state":"NC","status":"In Service","stype":"Substation","source":"OSM/CSV","source_id":"or:electric_substation:15626"},{"name":"Tap146916","lat":36.420043,"lon":-78.942889,"maxkv":115.0,"minkv":115.0,"class":"Transmission","county":"Person","state":"NC","status":"In Service","stype":"Tap","source":"OSM/CSV","source_id":"or:electric_substation:15641"},{"name":"Tap162517","lat":35.07146,"lon":-78.966586,"maxkv":66.0,"minkv":66.0,"class":"Distribution","county":"Cumberland","state":"NC","status":"In Service","stype":"Tap","source":"OSM/CSV","source_id":"or:electric_substation:15644"},{"name":"Mcalpine Creek","lat":35.088431,"lon":-80.83965,"maxkv":100.0,"minkv":100.0,"class":"Sub-transmission","county":"Mecklenburg","state":"NC","status":"In Service","stype":"Substation","source":"OSM/CSV","source_id":"or:electric_substation:1568"},{"name":"Tap162518","lat":35.06897,"lon":-78.960249,"maxkv":66.0,"minkv":66.0,"class":"Distribution","county":"Cumberland","state":"NC","status":"In Service","stype":"Tap","source":"OSM/CSV","source_id":"or:electric_substation:15692"},{"name":"Laurinburg","lat":34.748165,"lon":-79.406203,"maxkv":115.0,"minkv":115.0,"class":"Transmission","county":"Scotland","state":"NC","status":"In Service","stype":"Substation","source":"OSM/CSV","source_id":"or:electric_substation:15694"},{"name":"Cowpens Solar Llc","lat":35.191153,"lon":-81.870961,"maxkv":100.0,"minkv":100.0,"class":"Sub-transmission","county":"Rutherford","state":"NC","status":"In Service","stype":"Tap","source":"OSM/CSV","source_id":"or:electric_substation:15703"},{"name":"Tap146917","lat":36.489841,"lon":-78.913811,"maxkv":230.0,"minkv":230.0,"class":"Transmission-EHV","county":"Person","state":"NC","status":"In Service","stype":"Tap","source":"OSM/CSV","source_id":"or:electric_substation:15710"},{"name":"Hodgesfy","lat":36.828347,"lon":-76.420318,"maxkv":115.0,"minkv":115.0,"class":"Transmission","county":"Chesapeake","state":"VA","status":"In Service","stype":"Substation","source":"OSM/CSV","source_id":"or:electric_substation:15725"},{"name":"Tap162519","lat":35.067092,"lon":-78.950744,"maxkv":66.0,"minkv":66.0,"class":"Distribution","county":"Cumberland","state":"NC","status":"In Service","stype":"Tap","source":"OSM/CSV","source_id":"or:electric_substation:15746"},{"name":"Unknown114096","lat":34.664372,"lon":-79.43014,"maxkv":null,"minkv":null,"class":"Undetermined","county":"Robeson","state":"NC","status":"In Service","stype":"Substation","source":"OSM/CSV","source_id":"or:electric_substation:15764"},{"name":"Bowershl","lat":36.794635,"lon":-76.397182,"maxkv":230.0,"minkv":230.0,"class":"Transmission-EHV","county":"Chesapeake","state":"VA","status":"In Service","stype":"Substation","source":"OSM/CSV","source_id":"or:electric_substation:15781"},{"name":"Stanardsville","lat":38.304216,"lon":-78.439514,"maxkv":null,"minkv":null,"class":"Undetermined","county":"Greene","state":"VA","status":"In Service","stype":"Substation","source":"OSM/CSV","source_id":"or:electric_substation:158"},{"name":"Unknown162520","lat":35.065555,"lon":-78.92535,"maxkv":66.0,"minkv":66.0,"class":"Distribution","county":"Cumberland","state":"NC","status":"In Service","stype":"Substation","source":"OSM/CSV","source_id":"or:electric_substation:15815"},{"name":"Laurinburg City","lat":34.766052,"lon":-79.474659,"maxkv":230.0,"minkv":230.0,"class":"Transmission-EHV","county":"Scotland","state":"NC","status":"In Service","stype":"Substation","source":"OSM/CSV","source_id":"or:electric_substation:15831"},{"name":"Huntmndp","lat":36.757045,"lon":-76.290929,"maxkv":230.0,"minkv":230.0,"class":"Transmission-EHV","county":"Chesapeake","state":"VA","status":"In Service","stype":"Substation","source":"OSM/CSV","source_id":"or:electric_substation:15843"},{"name":"Grassfid","lat":36.72621,"lon":-76.305987,"maxkv":115.0,"minkv":115.0,"class":"Transmission","county":"Chesapeake","state":"VA","status":"In Service","stype":"Substation","source":"OSM/CSV","source_id":"or:electric_substation:15877"},{"name":"Comnatgs","lat":36.770087,"lon":-76.303623,"maxkv":115.0,"minkv":115.0,"class":"Transmission","county":"Chesapeake","state":"VA","status":"In Service","stype":"Substation","source":"OSM/CSV","source_id":"or:electric_substation:15898"},{"name":"Laurel Hill","lat":34.802288,"lon":-79.533301,"maxkv":230.0,"minkv":230.0,"class":"Transmission-EHV","county":"Scotland","state":"NC","status":"In Service","stype":"Substation","source":"OSM/CSV","source_id":"or:electric_substation:15900"},{"name":"Tap154884","lat":35.730785,"lon":-81.998432,"maxkv":100.0,"minkv":100.0,"class":"Sub-transmission","county":"McDowell","state":"NC","status":"In Service","stype":"Tap","source":"OSM/CSV","source_id":"or:electric_substation:15902"},{"name":"Snorfolk","lat":36.810046,"lon":-76.252601,"maxkv":230.0,"minkv":230.0,"class":"Transmission-EHV","county":"Chesapeake","state":"VA","status":"In Service","stype":"Substation","source":"OSM/CSV","source_id":"or:electric_substation:15932"},{"name":"Tap154885","lat":35.64438,"lon":-81.968704,"maxkv":100.0,"minkv":100.0,"class":"Sub-transmission","county":"McDowell","state":"NC","status":"In Service","stype":"Tap","source":"OSM/CSV","source_id":"or:electric_substation:15943"},{"name":"Raeford","lat":34.929799,"lon":-79.169264,"maxkv":230.0,"minkv":115.0,"class":"Transmission-EHV","county":"Hoke","state":"NC","status":"In Service","stype":"Substation","source":"OSM/CSV","source_id":"or:electric_substation:15967"},{"name":"Tap154886","lat":35.508895,"lon":-81.972024,"maxkv":100.0,"minkv":100.0,"class":"Sub-transmission","county":"Rutherford","state":"NC","status":"In Service","stype":"Tap","source":"OSM/CSV","source_id":"or:electric_substation:15975"},{"name":"Mcalpine Creek","lat":35.120359,"lon":-80.78669,"maxkv":100.0,"minkv":100.0,"class":"Sub-transmission","county":"Mecklenburg","state":"NC","status":"In Service","stype":"Substation","source":"OSM/CSV","source_id":"or:electric_substation:1603"},{"name":"Esserville","lat":36.948303,"lon":-82.60484,"maxkv":69.0,"minkv":69.0,"class":"Sub-transmission","county":"Norton","state":"VA","status":"In Service","stype":"Substation","source":"OSM/CSV","source_id":"or:electric_substation:16037"},{"name":"Martins Creek Solar Farm","lat":35.027811,"lon":-84.051445,"maxkv":161.0,"minkv":161.0,"class":"Transmission","county":"Cherokee","state":"NC","status":"In Service","stype":"Tap","source":"OSM/CSV","source_id":"or:electric_substation:16045"},{"name":"Bond","lat":36.951806,"lon":-82.473361,"maxkv":138.0,"minkv":138.0,"class":"Transmission","county":"Wise","state":"VA","status":"In Service","stype":"Substation","source":"OSM/CSV","source_id":"or:electric_substation:16104"},{"name":"Unknown169598","lat":36.256952,"lon":-79.515274,"maxkv":null,"minkv":null,"class":"Undetermined","county":"Caswell","state":"NC","status":"In Service","stype":"Substation","source":"OSM/CSV","source_id":"or:electric_substation:16106"},{"name":"Nottely","lat":35.01156,"lon":-84.061277,"maxkv":161.0,"minkv":161.0,"class":"Transmission","county":"Cherokee","state":"NC","status":"In Service","stype":"Tap","source":"OSM/CSV","source_id":"or:electric_substation:16121"},{"name":"Virginia","lat":36.913492,"lon":-82.337036,"maxkv":138.0,"minkv":138.0,"class":"Transmission","county":"Wise","state":"VA","status":"In Service","stype":"Substation","source":"OSM/CSV","source_id":"or:electric_substation:16174"},{"name":"Unknown169599","lat":36.289728,"lon":-79.508595,"maxkv":null,"minkv":null,"class":"Undetermined","county":"Caswell","state":"NC","status":"In Service","stype":"Substation","source":"OSM/CSV","source_id":"or:electric_substation:16184"},{"name":"Hope Mills Rockfish Rd.","lat":34.980889,"lon":-79.035205,"maxkv":230.0,"minkv":230.0,"class":"Transmission-EHV","county":"Cumberland","state":"NC","status":"In Service","stype":"Substation","source":"OSM/CSV","source_id":"or:electric_substation:16244"},{"name":"Unknown169600","lat":36.280939,"lon":-79.256068,"maxkv":null,"minkv":null,"class":"Undetermined","county":"Caswell","state":"NC","status":"In Service","stype":"Substation","source":"OSM/CSV","source_id":"or:electric_substation:16260"},{"name":"Leesville","lat":35.872928,"lon":-78.699902,"maxkv":230.0,"minkv":230.0,"class":"Transmission-EHV","county":"Wake","state":"NC","status":"In Service","stype":"Substation","source":"OSM/CSV","source_id":"or:electric_substation:16333"},{"name":"Unknown169601","lat":36.30722,"lon":-79.441458,"maxkv":null,"minkv":null,"class":"Undetermined","county":"Caswell","state":"NC","status":"In Service","stype":"Substation","source":"OSM/CSV","source_id":"or:electric_substation:16337"},{"name":"Decision Support Solar","lat":35.063806,"lon":-80.766483,"maxkv":100.0,"minkv":100.0,"class":"Sub-transmission","county":"Mecklenburg","state":"NC","status":"In Service","stype":"Substation","source":"OSM/CSV","source_id":"or:electric_substation:1637"},